{"address":"13201 Ridgedale Dr","state":"MN","city":"Minnetonka","zipcode":"55305","phone":"19525428250","latitude":44.9702,"longitude":-93.4474,"chainStoreId":"100","created":1365570334740,"updated":1365570334740}
{"address":"5230 Campbell Blvd","state":"MD","city":"Nottingham","zipcode":"21236","phone":"14109339632","latitude":39.3708,"longitude":-76.4521,"chainStoreId":"1001","created":1365570335164,"updated":1365570335164}
{"address":"7951 Nolpark Ct","state":"MD","city":"Glen Burnie","zipcode":"21061","phone":"14109692257","latitude":39.1332,"longitude":-76.6343,"chainStoreId":"1003","created":1365570335173,"updated":1365570335173}
{"address":"4600 Mitchellville Rd","state":"MD","city":"Bowie","zipcode":"20716","phone":"13013523830","latitude":38.9526,"longitude":-76.7221,"chainStoreId":"1004","created":1365570335180,"updated":1365570335180}
{"address":"10301 New Guinea Rd","state":"VA","city":"Fairfax","zipcode":"22032","phone":"17037645100","latitude":38.7988,"longitude":-77.3012,"chainStoreId":"1005","created":1365570335187,"updated":1365570335187}
{"address":"10500 Campus Way S","state":"MD","city":"Upper Marlboro","zipcode":"20774","phone":"13013247080","latitude":38.8966,"longitude":-76.8265,"chainStoreId":"1006","created":1365570335194,"updated":1365570335194}
{"address":"3343 Corridor Marketplace","state":"MD","city":"Laurel","zipcode":"20724","phone":"13014830934","latitude":39.0969,"longitude":-76.81,"chainStoreId":"1007","created":1365570335202,"updated":1365570335202}
{"address":"3300 Western Pkwy","state":"MD","city":"Waldorf","zipcode":"20603","phone":"13016457114","latitude":38.6211,"longitude":-76.9232,"chainStoreId":"1008","created":1365570335209,"updated":1365570335209}
{"address":"46201 Potomac Run Plz","state":"VA","city":"Sterling","zipcode":"20164","phone":"17034448440","latitude":39.0262,"longitude":-77.4003,"chainStoreId":"1009","created":1365570335217,"updated":1365570335217}
{"address":"1575 Niagara Falls Blvd","state":"NY","city":"Amherst","zipcode":"14228","phone":"17168318750","latitude":42.9987,"longitude":-78.8184,"chainStoreId":"1010","created":1365570335225,"updated":1365570335225}
{"address":"8290 Transit Rd","state":"NY","city":"Williamsville","zipcode":"14221","phone":"17166391945","latitude":42.995,"longitude":-78.6981,"chainStoreId":"1011","created":1365570335232,"updated":1365570335232}
{"address":"7414 Niagara Falls Blvd","state":"NY","city":"Niagara Falls","zipcode":"14304","phone":"17162830085","latitude":43.0895,"longitude":-78.9794,"chainStoreId":"1012","created":1365570335239,"updated":1365570335239}
{"address":"2626 Delaware Ave","state":"NY","city":"Buffalo","zipcode":"14216","phone":"17164470094","latitude":42.9557,"longitude":-78.8735,"chainStoreId":"1013","created":1365570335246,"updated":1365570335246}
{"address":"721 Southpark Blvd","state":"VA","city":"Colonial Heights","zipcode":"23834","phone":"18045200190","latitude":37.2481,"longitude":-77.3877,"chainStoreId":"1016","created":1365570335254,"updated":1365570335254}
{"address":"3040 S Evans St","state":"NC","city":"Greenville","zipcode":"27834","phone":"12523558020","latitude":35.5772,"longitude":-77.383,"chainStoreId":"1022","created":1365570335264,"updated":1365570335264}
{"address":"60 Yorktown Shopping Ctr","state":"IL","city":"Lombard","zipcode":"60148","phone":"16304959560","latitude":41.8445,"longitude":-88.0031,"chainStoreId":"1024","created":1365570335271,"updated":1365570335271}
{"address":"7505 Laguna Blvd","state":"CA","city":"Elk Grove","zipcode":"95758","phone":"19166835356","latitude":38.4266,"longitude":-121.416,"chainStoreId":"1025","created":1365570335288,"updated":1365570335288}
{"address":"205 Soscol Ave","state":"CA","city":"Napa","zipcode":"94559","phone":"17072241058","latitude":38.2824,"longitude":-122.277,"chainStoreId":"1026","created":1365570335295,"updated":1365570335295}
{"address":"7989 US Highway 64","state":"TN","city":"Memphis","zipcode":"38133","phone":"19013831649","latitude":35.2037,"longitude":-89.7962,"chainStoreId":"1030","created":1365570335302,"updated":1365570335302}
{"address":"7845 N Macarthur Blvd","state":"TX","city":"Irving","zipcode":"75063","phone":"19725069924","latitude":32.913,"longitude":-96.9611,"chainStoreId":"1032","created":1365570335308,"updated":1365570335308}
{"address":"900 E Kemper Rd","state":"OH","city":"Springdale","zipcode":"45246","phone":"15136718555","latitude":39.2879,"longitude":-84.4542,"chainStoreId":"1037","created":1365570335318,"updated":1365570335318}
{"address":"1245 N Military Hwy","state":"VA","city":"Norfolk","zipcode":"23502","phone":"17574619369","latitude":36.8653,"longitude":-76.2123,"chainStoreId":"1048","created":1365570335329,"updated":1365570335329}
{"address":"5455 Clyde Park Ave SW","state":"MI","city":"Wyoming","zipcode":"49509","phone":"16162491008","latitude":42.8651,"longitude":-85.6864,"chainStoreId":"1052","created":1365570335337,"updated":1365570335337}
{"address":"250 Crockett Blvd","state":"FL","city":"Merritt Island","zipcode":"32953","phone":"13214521014","latitude":28.3861,"longitude":-80.7052,"chainStoreId":"1053","created":1365570335346,"updated":1365570335346}
{"address":"1150 El Camino Real","state":"CA","city":"San Bruno","zipcode":"94066","phone":"16508270171","latitude":37.6352,"longitude":-122.418,"chainStoreId":"1054","created":1365570335353,"updated":1365570335353}
{"address":"5622 Amanda Ln","state":"NY","city":"Orchard Park","zipcode":"14127","phone":"17168219511","latitude":42.7924,"longitude":-78.7833,"chainStoreId":"1057","created":1365570335359,"updated":1365570335359}
{"address":"5501 S Scatterfield Rd","state":"IN","city":"Anderson","zipcode":"46013","phone":"17656492521","latitude":40.0599,"longitude":-85.6551,"chainStoreId":"107","created":1365570335367,"updated":1365570335367}
{"address":"4199 Morse Xing","state":"OH","city":"Columbus","zipcode":"43219","phone":"16144712154","latitude":40.0568,"longitude":-82.9221,"chainStoreId":"1072","created":1365570335372,"updated":1365570335372}
{"address":"20500 SW 112th Ave","state":"FL","city":"Miami","zipcode":"33189","phone":"13052350839","latitude":25.576,"longitude":-80.3746,"chainStoreId":"1075","created":1365570335378,"updated":1365570335378}
{"address":"3101 Jefferson Davis Hwy","state":"VA","city":"Alexandria","zipcode":"22305","phone":"17037063840","latitude":38.8337,"longitude":-77.0493,"chainStoreId":"1076","created":1365570335383,"updated":1365570335383}
{"address":"5420 University Pkwy","state":"NC","city":"Winston Salem","zipcode":"27105","phone":"13367447880","latitude":36.1684,"longitude":-80.2787,"chainStoreId":"1077","created":1365570335389,"updated":1365570335389}
{"address":"1212 Bridford Pkwy","state":"NC","city":"Greensboro","zipcode":"27407","phone":"13368561066","latitude":36.0569,"longitude":-79.9069,"chainStoreId":"1078","created":1365570335395,"updated":1365570335395}
{"address":"1050 Mall Loop","state":"NC","city":"High Point","zipcode":"27262","phone":"13368845222","latitude":35.9935,"longitude":-80.0087,"chainStoreId":"1079","created":1365570335401,"updated":1365570335401}
{"address":"4000 1st Ave","state":"IN","city":"Evansville","zipcode":"47710","phone":"18124262218","latitude":38.0157,"longitude":-87.5764,"chainStoreId":"108","created":1365570335406,"updated":1365570335406}
{"address":"7860 Rea Rd","state":"NC","city":"Charlotte","zipcode":"28277","phone":"17045421856","latitude":35.0594,"longitude":-80.816,"chainStoreId":"1087","created":1365570335441,"updated":1365570335441}
{"address":"235 Robert C Daniel Jr Pkwy","state":"GA","city":"Augusta","zipcode":"30909","phone":"17066676368","latitude":33.4909,"longitude":-82.0812,"chainStoreId":"1090","created":1365570335447,"updated":1365570335447}
{"address":"1650 New Brighton Blvd","state":"MN","city":"Minneapolis","zipcode":"55413","phone":"16127817033","latitude":45.005,"longitude":-93.2289,"chainStoreId":"1095","created":1365570335453,"updated":1365570335453}
{"address":"2705 Teller Rd","state":"CA","city":"Thousand Oaks","zipcode":"91320","phone":"18054809114","latitude":34.1912,"longitude":-118.935,"chainStoreId":"1100","created":1365570335469,"updated":1365570335469}
{"address":"2341 N Highway 67","state":"MO","city":"Florissant","zipcode":"63033","phone":"13148318000","latitude":38.8052,"longitude":-90.3102,"chainStoreId":"1101","created":1365570335477,"updated":1365570335477}
{"address":"25 Brentwood Promenade Ct","state":"MO","city":"Brentwood","zipcode":"63144","phone":"13149189500","latitude":38.6278,"longitude":-90.3438,"chainStoreId":"1102","created":1365570335482,"updated":1365570335482}
{"address":"12130 Jefferson Ave","state":"VA","city":"Newport News","zipcode":"23602","phone":"17578828700","latitude":37.1075,"longitude":-76.492,"chainStoreId":"1103","created":1365570335487,"updated":1365570335487}
{"address":"2700 Timber Dr","state":"NC","city":"Garner","zipcode":"27529","phone":"19197729065","latitude":35.7157,"longitude":-78.6381,"chainStoreId":"1104","created":1365570335492,"updated":1365570335492}
{"address":"2060 S Independence Blvd","state":"VA","city":"Virginia Beach","zipcode":"23453","phone":"17574161719","latitude":36.7878,"longitude":-76.1089,"chainStoreId":"1105","created":1365570335497,"updated":1365570335497}
{"address":"3040 Shallowford Rd","state":"GA","city":"Marietta","zipcode":"30062","phone":"17703218545","latitude":34.0353,"longitude":-84.4605,"chainStoreId":"1106","created":1365570335502,"updated":1365570335502}
{"address":"98 Veterans Memorial Hwy","state":"NY","city":"Commack","zipcode":"11725","phone":"16314628969","latitude":40.8389,"longitude":-73.2852,"chainStoreId":"1108","created":1365570335507,"updated":1365570335507}
{"address":"1037 S Reed Rd","state":"IN","city":"Kokomo","zipcode":"46902","phone":"17654577577","latitude":40.4753,"longitude":-86.1089,"chainStoreId":"111","created":1365570335513,"updated":1365570335513}
{"address":"5900 Lake Worth Rd","state":"FL","city":"Greenacres","zipcode":"33463","phone":"15619633382","latitude":26.6183,"longitude":-80.1373,"chainStoreId":"1110","created":1365570335518,"updated":1365570335518}
{"address":"36195 Euclid Ave","state":"OH","city":"Willoughby","zipcode":"44094","phone":"14409751922","latitude":41.6289,"longitude":-81.4286,"chainStoreId":"1112","created":1365570335525,"updated":1365570335525}
{"address":"503 I 45 N","state":"TX","city":"Conroe","zipcode":"77304","phone":"19367602663","latitude":30.3131,"longitude":-95.4737,"chainStoreId":"1115","created":1365570335533,"updated":1365570335533}
{"address":"13950 NE 178th Pl","state":"WA","city":"Woodinville","zipcode":"98072","phone":"14254826410","latitude":47.7589,"longitude":-122.1546,"chainStoreId":"1118","created":1365570335540,"updated":1365570335540}
{"address":"2305 Theatre Dr","state":"CA","city":"Paso Robles","zipcode":"93446","phone":"18052270105","latitude":35.584,"longitude":-120.698,"chainStoreId":"1120","created":1365570335546,"updated":1365570335546}
{"address":"2220 Bridgepointe Pkwy","state":"CA","city":"San Mateo","zipcode":"94404","phone":"16503410734","latitude":37.5593,"longitude":-122.283,"chainStoreId":"1122","created":1365570335555,"updated":1365570335555}
{"address":"21515 Tomball Pkwy","state":"TX","city":"Houston","zipcode":"77070","phone":"12816551427","latitude":29.9997,"longitude":-95.5838,"chainStoreId":"1124","created":1365570335561,"updated":1365570335561}
{"address":"239 Golf Mill Ctr","state":"IL","city":"Niles","zipcode":"60714","phone":"18477689217","latitude":42.0531,"longitude":-87.8389,"chainStoreId":"1125","created":1365570335565,"updated":1365570335565}
{"address":"1851 Old Fort Pkwy","state":"TN","city":"Murfreesboro","zipcode":"37129","phone":"16159072977","latitude":35.844,"longitude":-86.4259,"chainStoreId":"1126","created":1365570335570,"updated":1365570335570}
{"address":"960 Fairplain Dr","state":"MI","city":"Benton Harbor","zipcode":"49022","phone":"12699251205","latitude":42.0812,"longitude":-86.4348,"chainStoreId":"1127","created":1365570335575,"updated":1365570335575}
{"address":"2490 N Fairfield Rd","state":"OH","city":"Beavercreek","zipcode":"45431","phone":"19374318660","latitude":39.7639,"longitude":-84.051,"chainStoreId":"1128","created":1365570335580,"updated":1365570335580}
{"address":"201 Sunrise Blvd","state":"PA","city":"Exton","zipcode":"19341","phone":"16102807233","latitude":40.039,"longitude":-75.6294,"chainStoreId":"1134","created":1365570335586,"updated":1365570335586}
{"address":"857 Baltimore Pike","state":"PA","city":"Springfield","zipcode":"19064","phone":"16103380530","latitude":39.9155,"longitude":-75.334,"chainStoreId":"1136","created":1365570335591,"updated":1365570335591}
{"address":"1415 Main St","state":"CA","city":"Watsonville","zipcode":"95076","phone":"18317619194","latitude":36.9158,"longitude":-121.776,"chainStoreId":"1143","created":1365570335597,"updated":1365570335597}
{"address":"3300 124th Ave NW","state":"MN","city":"Coon Rapids","zipcode":"55433","phone":"17633232931","latitude":45.195,"longitude":-93.3506,"chainStoreId":"1144","created":1365570335604,"updated":1365570335604}
{"address":"1050 Brandywine Pkwy","state":"DE","city":"Wilmington","zipcode":"19803","phone":"13024782500","latitude":39.8305,"longitude":-75.5408,"chainStoreId":"1146","created":1365570335612,"updated":1365570335612}
{"address":"1149 Sunrise Hwy","state":"NY","city":"Copiague","zipcode":"11726","phone":"16318415056","latitude":40.688,"longitude":-73.4068,"chainStoreId":"1147","created":1365570335617,"updated":1365570335617}
{"address":"838 Sunrise Hwy","state":"NY","city":"Bay Shore","zipcode":"11706","phone":"16319698958","latitude":40.7264,"longitude":-73.2772,"chainStoreId":"1148","created":1365570335621,"updated":1365570335621}
{"address":"13505 20th Ave","state":"NY","city":"College Point","zipcode":"11356","phone":"17186614346","latitude":40.7831,"longitude":-73.8333,"chainStoreId":"1150","created":1365570335625,"updated":1365570335625}
{"address":"500 Nassau Park Blvd","state":"NJ","city":"Princeton","zipcode":"8540","phone":"16099518555","latitude":40.3059,"longitude":-74.6766,"chainStoreId":"1151","created":1365570335630,"updated":1365570335630}
{"address":"400 Ryders Ln","state":"NJ","city":"Milltown","zipcode":"8850","phone":"17326133903","latitude":40.4422,"longitude":-74.426,"chainStoreId":"1152","created":1365570335634,"updated":1365570335634}
{"address":"570 Route 70","state":"NJ","city":"Brick","zipcode":"8723","phone":"17322620600","latitude":40.0583,"longitude":-74.1498,"chainStoreId":"1153","created":1365570335638,"updated":1365570335638}
{"address":"1331 Hooper Ave","state":"NJ","city":"Toms River","zipcode":"8753","phone":"17325570220","latitude":39.9879,"longitude":-74.1754,"chainStoreId":"1154","created":1365570335642,"updated":1365570335642}
{"address":"1515 US Highway 22","state":"NJ","city":"Watchung","zipcode":"7069","phone":"19087698699","latitude":40.6412,"longitude":-74.4221,"chainStoreId":"1155","created":1365570335647,"updated":1365570335647}
{"address":"7500 Commons Blvd","state":"NY","city":"Victor","zipcode":"14564","phone":"15854250800","latitude":43.0334,"longitude":-77.4485,"chainStoreId":"1156","created":1365570335651,"updated":1365570335651}
{"address":"2325 Marketplace Dr","state":"NY","city":"Rochester","zipcode":"14623","phone":"15854243370","latitude":43.0785,"longitude":-77.6317,"chainStoreId":"1157","created":1365570335655,"updated":1365570335655}
{"address":"153 Sierra Dr","state":"PA","city":"Altoona","zipcode":"16601","phone":"18149493592","latitude":40.4585,"longitude":-78.4085,"chainStoreId":"1160","created":1365570335659,"updated":1365570335659}
{"address":"4630 Monticello Ave","state":"VA","city":"Williamsburg","zipcode":"23188","phone":"17572589794","latitude":37.2711,"longitude":-76.7607,"chainStoreId":"1161","created":1365570335663,"updated":1365570335663}
{"address":"4125 Austell Rd","state":"GA","city":"Austell","zipcode":"30106","phone":"16789454550","latitude":33.852,"longitude":-84.6032,"chainStoreId":"1164","created":1365570335667,"updated":1365570335667}
{"address":"2535 Dallas Hwy SW","state":"GA","city":"Marietta","zipcode":"30064","phone":"17707927933","latitude":33.9478,"longitude":-84.6256,"chainStoreId":"1165","created":1365570335671,"updated":1365570335671}
{"address":"5580 Northwest Hwy","state":"IL","city":"Crystal Lake","zipcode":"60014","phone":"18153569265","latitude":42.2284,"longitude":-88.3055,"chainStoreId":"1166","created":1365570335675,"updated":1365570335675}
{"address":"2099 Skokie Valley Rd","state":"IL","city":"Highland Park","zipcode":"60035","phone":"18472668022","latitude":42.1917,"longitude":-87.825,"chainStoreId":"1168","created":1365570335679,"updated":1365570335679}
{"address":"7255 Interstate Dr","state":"MS","city":"Horn Lake","zipcode":"38637","phone":"16623491585","latitude":34.966,"longitude":-90.0055,"chainStoreId":"1169","created":1365570335683,"updated":1365570335683}
{"address":"320 S Duff Ave","state":"IA","city":"Ames","zipcode":"50010","phone":"15156639500","latitude":42.0194,"longitude":-93.6074,"chainStoreId":"1170","created":1365570335687,"updated":1365570335687}
{"address":"2950 Chapel Hill Rd","state":"GA","city":"Douglasville","zipcode":"30135","phone":"17709475303","latitude":33.7261,"longitude":-84.7346,"chainStoreId":"1172","created":1365570335691,"updated":1365570335691}
{"address":"1701 18th Ave NW","state":"MN","city":"Austin","zipcode":"55912","phone":"15074371164","latitude":43.6839,"longitude":-92.9958,"chainStoreId":"1173","created":1365570335694,"updated":1365570335694}
{"address":"2300 College Way","state":"MN","city":"Fergus Falls","zipcode":"56537","phone":"12187364360","latitude":46.2912,"longitude":-96.1135,"chainStoreId":"1174","created":1365570335700,"updated":1365570335700}
{"address":"632 Route 46 E","state":"NJ","city":"Fairfield","zipcode":"7004","phone":"19733960069","latitude":40.8895,"longitude":-74.2718,"chainStoreId":"1175","created":1365570335705,"updated":1365570335705}
{"address":"2701 Lawndale Dr","state":"NC","city":"Greensboro","zipcode":"27408","phone":"13362862511","latitude":36.1046,"longitude":-79.8209,"chainStoreId":"1180","created":1365570335710,"updated":1365570335710}
{"address":"1910 Catawba Valley Blvd SE","state":"NC","city":"Hickory","zipcode":"28602","phone":"18282670032","latitude":35.7019,"longitude":-81.3073,"chainStoreId":"1181","created":1365570335713,"updated":1365570335713}
{"address":"1112 Woodruff Rd","state":"SC","city":"Greenville","zipcode":"29607","phone":"18642863689","latitude":34.8306,"longitude":-82.3084,"chainStoreId":"1182","created":1365570335716,"updated":1365570335716}
{"address":"55 US Hwy 9","state":"NJ","city":"Manalapan","zipcode":"7726","phone":"17322945190","latitude":40.2905,"longitude":-74.3009,"chainStoreId":"1184","created":1365570335719,"updated":1365570335719}
{"address":"2199  Hwy 36 E","state":"MN","city":"North Saint Paul","zipcode":"55109","phone":"16517795986","latitude":45.0136,"longitude":-93.0089,"chainStoreId":"1185","created":1365570335722,"updated":1365570335722}
{"address":"203 S Broadway","state":"NH","city":"Salem","zipcode":"3079","phone":"16038700071","latitude":42.7647,"longitude":-71.2155,"chainStoreId":"1186","created":1365570335725,"updated":1365570335725}
{"address":"240 Independence Way","state":"MA","city":"Danvers","zipcode":"1923","phone":"19787624439","latitude":42.5524,"longitude":-70.9372,"chainStoreId":"1187","created":1365570335728,"updated":1365570335728}
{"address":"1245 Bald Hill Rd","state":"RI","city":"Warwick","zipcode":"2886","phone":"14018210121","latitude":41.7065,"longitude":-71.4937,"chainStoreId":"1188","created":1365570335732,"updated":1365570335732}
{"address":"81 Taunton Depot Dr","state":"MA","city":"Taunton","zipcode":"2780","phone":"15088248004","latitude":41.8781,"longitude":-71.0693,"chainStoreId":"1189","created":1365570335735,"updated":1365570335735}
{"address":"2105 Route 35","state":"NJ","city":"Middletown","zipcode":"7748","phone":"17327069222","latitude":40.4115,"longitude":-74.136,"chainStoreId":"1192","created":1365570335739,"updated":1365570335739}
{"address":"600 Greece Ridge Center Dr","state":"NY","city":"Rochester","zipcode":"14626","phone":"15852250240","latitude":43.2031,"longitude":-77.6926,"chainStoreId":"1194","created":1365570335743,"updated":1365570335743}
{"address":"2161 N Nine Mile Point Rd","state":"NY","city":"Fairport","zipcode":"14450","phone":"15853770360","latitude":43.1281,"longitude":-77.4437,"chainStoreId":"1195","created":1365570335746,"updated":1365570335746}
{"address":"12275 Saint Charles Rock Rd","state":"MO","city":"Bridgeton","zipcode":"63044","phone":"13142910600","latitude":38.7538,"longitude":-90.4263,"chainStoreId":"12","created":1365570335750,"updated":1365570335750}
{"address":"9070 Dixie Hwy","state":"KY","city":"Louisville","zipcode":"40258","phone":"15029331315","latitude":38.1248,"longitude":-85.855,"chainStoreId":"120","created":1365570335753,"updated":1365570335753}
{"address":"17810 E 39th St S","state":"MO","city":"Independence","zipcode":"64055","phone":"18163731800","latitude":39.0506,"longitude":-94.3701,"chainStoreId":"1201","created":1365570335756,"updated":1365570335756}
{"address":"3205 Woodward Crossing Blvd","state":"GA","city":"Buford","zipcode":"30519","phone":"16784822367","latitude":34.07,"longitude":-83.9824,"chainStoreId":"1206","created":1365570335759,"updated":1365570335759}
{"address":"8750 W Charleston Blvd","state":"NV","city":"Las Vegas","zipcode":"89117","phone":"17029332300","latitude":36.161,"longitude":-115.288,"chainStoreId":"1207","created":1365570335762,"updated":1365570335762}
{"address":"1871 N Main St","state":"CA","city":"Walnut Creek","zipcode":"94596","phone":"19259790083","latitude":37.9046,"longitude":-122.065,"chainStoreId":"1208","created":1365570335765,"updated":1365570335765}
{"address":"1515 E Warner Rd","state":"AZ","city":"Gilbert","zipcode":"85296","phone":"14808922282","latitude":33.3342,"longitude":-111.757,"chainStoreId":"1209","created":1365570335768,"updated":1365570335768}
{"address":"1370 Highway 15","state":"MN","city":"Hutchinson","zipcode":"55350","phone":"13205877113","latitude":44.8689,"longitude":-94.3775,"chainStoreId":"1210","created":1365570335771,"updated":1365570335771}
{"address":"13460 S Archer Ave","state":"IL","city":"Lemont","zipcode":"60439","phone":"16302436511","latitude":41.644,"longitude":-88.0041,"chainStoreId":"1213","created":1365570335775,"updated":1365570335775}
{"address":"600 Chauvet Dr","state":"PA","city":"Pittsburgh","zipcode":"15275","phone":"14124900488","latitude":40.4457,"longitude":-80.1831,"chainStoreId":"1217","created":1365570335778,"updated":1365570335778}
{"address":"4004 Monroeville Blvd","state":"PA","city":"Monroeville","zipcode":"15146","phone":"14123749611","latitude":40.434,"longitude":-79.7719,"chainStoreId":"1219","created":1365570335781,"updated":1365570335781}
{"address":"200 Promenade Blvd","state":"NJ","city":"Bridgewater","zipcode":"8807","phone":"17328688333","latitude":40.5623,"longitude":-74.5533,"chainStoreId":"1224","created":1365570335785,"updated":1365570335785}
{"address":"4601 Commonwealth Center Pkwy","state":"VA","city":"Midlothian","zipcode":"23112","phone":"18046390580","latitude":37.4219,"longitude":-77.633,"chainStoreId":"1225","created":1365570335788,"updated":1365570335788}
{"address":"907 W McDermott Dr","state":"TX","city":"Allen","zipcode":"75013","phone":"19723969486","latitude":33.0997,"longitude":-96.6821,"chainStoreId":"1231","created":1365570335792,"updated":1365570335792}
{"address":"50 Holyoke St","state":"MA","city":"Holyoke","zipcode":"1040","phone":"14135320240","latitude":42.1677,"longitude":-72.6423,"chainStoreId":"1232","created":1365570335795,"updated":1365570335795}
{"address":"1515 N Litchfield Rd","state":"AZ","city":"Goodyear","zipcode":"85395","phone":"16239353510","latitude":33.4632,"longitude":-112.356,"chainStoreId":"1242","created":1365570335800,"updated":1365570335800}
{"address":"2189 W Craig Rd","state":"NV","city":"North Las Vegas","zipcode":"89032","phone":"17026481005","latitude":36.2383,"longitude":-115.172,"chainStoreId":"1243","created":1365570335804,"updated":1365570335804}
{"address":"356 12th St SW","state":"MN","city":"Forest Lake","zipcode":"55025","phone":"16514644700","latitude":45.2748,"longitude":-92.9996,"chainStoreId":"1244","created":1365570335807,"updated":1365570335807}
{"address":"875 General Sieben Dr","state":"MN","city":"Hastings","zipcode":"55033","phone":"16514802080","latitude":44.7373,"longitude":-92.8888,"chainStoreId":"1245","created":1365570335810,"updated":1365570335810}
{"address":"410 S Ashland Ave","state":"WI","city":"Sturgeon Bay","zipcode":"54235","phone":"19207435775","latitude":44.8221,"longitude":-87.4039,"chainStoreId":"1246","created":1365570335813,"updated":1365570335813}
{"address":"1001 Cormier Rd","state":"WI","city":"Green Bay","zipcode":"54304","phone":"19204990494","latitude":44.4905,"longitude":-88.0712,"chainStoreId":"1247","created":1365570335816,"updated":1365570335816}
{"address":"1800 S Kensington Dr","state":"WI","city":"Appleton","zipcode":"54915","phone":"19207499770","latitude":44.2452,"longitude":-88.3573,"chainStoreId":"1248","created":1365570335819,"updated":1365570335819}
{"address":"125 Buckland Hills Dr","state":"CT","city":"Manchester","zipcode":"6042","phone":"18603270082","latitude":41.8098,"longitude":-72.5497,"chainStoreId":"1249","created":1365570335822,"updated":1365570335822}
{"address":"800 Watkins Rd","state":"TN","city":"Maryville","zipcode":"37801","phone":"18659821590","latitude":35.7523,"longitude":-83.9918,"chainStoreId":"1250","created":1365570335825,"updated":1365570335825}
{"address":"5125 Jonestown Rd Ste 331","state":"PA","city":"Harrisburg","zipcode":"17112","phone":"17176718098","latitude":40.3086,"longitude":-76.7967,"chainStoreId":"1254","created":1365570335838,"updated":1365570335838}
{"address":"90 Elm St","state":"CT","city":"Enfield","zipcode":"6082","phone":"18607412676","latitude":41.9951,"longitude":-72.5825,"chainStoreId":"1255","created":1365570335841,"updated":1365570335841}
{"address":"1495 Old York Rd","state":"PA","city":"Abington","zipcode":"19001","phone":"12155726977","latitude":40.1246,"longitude":-75.116,"chainStoreId":"1256","created":1365570335844,"updated":1365570335844}
{"address":"17213 Cole Rd","state":"MD","city":"Hagerstown","zipcode":"21740","phone":"13015829118","latitude":39.6203,"longitude":-77.773,"chainStoreId":"1257","created":1365570335848,"updated":1365570335848}
{"address":"45155 First Colony Way","state":"MD","city":"California","zipcode":"20619","phone":"13018625003","latitude":38.2977,"longitude":-76.5133,"chainStoreId":"1258","created":1365570335851,"updated":1365570335851}
{"address":"1717 Route 228","state":"PA","city":"Cranberry Twp","zipcode":"16066","phone":"17247789000","latitude":40.6879,"longitude":-80.0844,"chainStoreId":"1259","created":1365570335854,"updated":1365570335854}
{"address":"350 Pocono Commons","state":"PA","city":"Stroudsburg","zipcode":"18360","phone":"15704261050","latitude":40.9942,"longitude":-75.2449,"chainStoreId":"1260","created":1365570335857,"updated":1365570335857}
{"address":"30 Rhl Blvd","state":"WV","city":"Charleston","zipcode":"25309","phone":"13047465445","latitude":38.3386,"longitude":-81.7138,"chainStoreId":"1261","created":1365570335860,"updated":1365570335860}
{"address":"543 River Rd","state":"NJ","city":"Edgewater","zipcode":"7020","phone":"12014020252","latitude":40.8135,"longitude":-73.9821,"chainStoreId":"1263","created":1365570335863,"updated":1365570335863}
{"address":"3850 Hempstead Tpke","state":"NY","city":"Levittown","zipcode":"11756","phone":"15167319392","latitude":40.7247,"longitude":-73.4947,"chainStoreId":"1264","created":1365570335866,"updated":1365570335866}
{"address":"9901 York Rd","state":"MD","city":"Cockeysville","zipcode":"21030","phone":"14106834985","latitude":39.4622,"longitude":-76.6343,"chainStoreId":"1265","created":1365570335869,"updated":1365570335869}
{"address":"900 Hartford Tpke","state":"CT","city":"Waterford","zipcode":"6385","phone":"18604423300","latitude":41.3773,"longitude":-72.1496,"chainStoreId":"1267","created":1365570335873,"updated":1365570335873}
{"address":"1440 Central Ave","state":"NY","city":"Colonie","zipcode":"12205","phone":"15184891112","latitude":42.7049,"longitude":-73.8241,"chainStoreId":"1268","created":1365570335876,"updated":1365570335876}
{"address":"2250 Chemical Rd","state":"PA","city":"Plymouth Meeting","zipcode":"19462","phone":"16102760042","latitude":40.1055,"longitude":-75.2962,"chainStoreId":"1269","created":1365570335879,"updated":1365570335879}
{"address":"3031 Route 50","state":"NY","city":"Saratoga Springs","zipcode":"12866","phone":"15182260003","latitude":43.0996,"longitude":-73.7444,"chainStoreId":"1271","created":1365570335882,"updated":1365570335882}
{"address":"1698 US Highway 98","state":"AL","city":"Daphne","zipcode":"36526","phone":"12516213540","latitude":30.6027,"longitude":-87.8964,"chainStoreId":"1274","created":1365570335886,"updated":1365570335886}
{"address":"4028 Wards Rd","state":"VA","city":"Lynchburg","zipcode":"24502","phone":"14342396163","latitude":37.3459,"longitude":-79.1901,"chainStoreId":"1275","created":1365570335888,"updated":1365570335888}
{"address":"3849 Vogel Rd","state":"MO","city":"Arnold","zipcode":"63010","phone":"16362871055","latitude":38.4128,"longitude":-90.397,"chainStoreId":"1278","created":1365570335891,"updated":1365570335891}
{"address":"1042 S Kirkwood Rd","state":"MO","city":"Kirkwood","zipcode":"63122","phone":"13148224051","latitude":38.565,"longitude":-90.405,"chainStoreId":"1279","created":1365570335895,"updated":1365570335895}
{"address":"3881 Mexico Rd","state":"MO","city":"Saint Charles","zipcode":"63303","phone":"16369220165","latitude":38.7878,"longitude":-90.5627,"chainStoreId":"1280","created":1365570335899,"updated":1365570335899}
{"address":"250 Fortune Blvd","state":"MA","city":"Milford","zipcode":"1757","phone":"15084785880","latitude":42.16,"longitude":-71.4978,"chainStoreId":"1281","created":1365570335902,"updated":1365570335902}
{"address":"41040 California Oaks Rd","state":"CA","city":"Murrieta","zipcode":"92562","phone":"19516967527","latitude":33.5656,"longitude":-117.204,"chainStoreId":"1283","created":1365570335905,"updated":1365570335905}
{"address":"2420 Laporte Ave","state":"IN","city":"Valparaiso","zipcode":"46383","phone":"12195316448","latitude":41.467,"longitude":-87.0302,"chainStoreId":"1286","created":1365570335910,"updated":1365570335910}
{"address":"13131 Montfort Dr","state":"TX","city":"Dallas","zipcode":"75240","phone":"19722398161","latitude":32.9274,"longitude":-96.814,"chainStoreId":"13","created":1365570335915,"updated":1365570335915}
{"address":"3535 S La Cienega Blvd","state":"CA","city":"Los Angeles","zipcode":"90016","phone":"13108951131","latitude":34.0226,"longitude":-118.373,"chainStoreId":"1306","created":1365570335921,"updated":1365570335921}
{"address":"5711 Sepulveda Blvd","state":"CA","city":"Van Nuys","zipcode":"91411","phone":"18187790163","latitude":34.1743,"longitude":-118.467,"chainStoreId":"1307","created":1365570335925,"updated":1365570335925}
{"address":"621 W Edgar Rd","state":"NJ","city":"Linden","zipcode":"7036","phone":"19084741733","latitude":40.6196,"longitude":-74.2431,"chainStoreId":"1315","created":1365570335929,"updated":1365570335929}
{"address":"1225 W Irvington Rd","state":"AZ","city":"Tucson","zipcode":"85714","phone":"15202951277","latitude":32.1606,"longitude":-110.989,"chainStoreId":"1316","created":1365570335932,"updated":1365570335932}
{"address":"9666 Olde US 20","state":"OH","city":"Rossford","zipcode":"43460","phone":"14198728310","latitude":41.5427,"longitude":-83.5804,"chainStoreId":"1317","created":1365570335935,"updated":1365570335935}
{"address":"1300 Ulster Ave","state":"NY","city":"Kingston","zipcode":"12401","phone":"18453362045","latitude":41.9685,"longitude":-73.9859,"chainStoreId":"1318","created":1365570335937,"updated":1365570335937}
{"address":"35830 Detroit Rd","state":"OH","city":"Avon","zipcode":"44011","phone":"14409374301","latitude":41.4632,"longitude":-82.0096,"chainStoreId":"1325","created":1365570335941,"updated":1365570335941}
{"address":"5010 Founders Pkwy","state":"CO","city":"Castle Rock","zipcode":"80108","phone":"13036634322","latitude":39.4082,"longitude":-104.857,"chainStoreId":"1326","created":1365570335944,"updated":1365570335944}
{"address":"10600 Firestone Blvd","state":"CA","city":"Norwalk","zipcode":"90650","phone":"15624068870","latitude":33.9255,"longitude":-118.107,"chainStoreId":"1340","created":1365570335952,"updated":1365570335952}
{"address":"7000 Mannheim Rd","state":"IL","city":"Rosemont","zipcode":"60018","phone":"18477951760","latitude":42.0067,"longitude":-87.8862,"chainStoreId":"1342","created":1365570335955,"updated":1365570335955}
{"address":"8801 Queens Blvd","state":"NY","city":"Elmhurst","zipcode":"11373","phone":"17187605656","latitude":40.7344,"longitude":-73.8676,"chainStoreId":"1344","created":1365570335959,"updated":1365570335959}
{"address":"70 Princeton Hightstown Rd","state":"NJ","city":"East Windsor","zipcode":"8520","phone":"16093712273","latitude":40.2771,"longitude":-74.5415,"chainStoreId":"1345","created":1365570335962,"updated":1365570335962}
{"address":"6275 University Dr NW","state":"AL","city":"Huntsville","zipcode":"35806","phone":"12569220189","latitude":34.7418,"longitude":-86.6818,"chainStoreId":"1346","created":1365570335965,"updated":1365570335965}
{"address":"529 Lincoln St","state":"MA","city":"Worcester","zipcode":"1605","phone":"15088523094","latitude":42.2928,"longitude":-71.7749,"chainStoreId":"1348","created":1365570335969,"updated":1365570335969}
{"address":"8199 Warren H Abernathy Pkwy","state":"SC","city":"Spartanburg","zipcode":"29301","phone":"18645741211","latitude":34.934,"longitude":-82.0087,"chainStoreId":"1349","created":1365570335972,"updated":1365570335972}
{"address":"11750 Commercial Dr","state":"IN","city":"Fishers","zipcode":"46038","phone":"13178454945","latitude":39.9591,"longitude":-86.0108,"chainStoreId":"1350","created":1365570335975,"updated":1365570335975}
{"address":"3827 Marketplace Dr NW","state":"MN","city":"Rochester","zipcode":"55901","phone":"15075362555","latitude":44.0624,"longitude":-92.5027,"chainStoreId":"1351","created":1365570335978,"updated":1365570335978}
{"address":"40 THF Blvd","state":"MO","city":"Chesterfield","zipcode":"63005","phone":"16365366207","latitude":38.6671,"longitude":-90.5858,"chainStoreId":"1353","created":1365570335981,"updated":1365570335981}
{"address":"18255 Blanco Rd  ","state":"TX","city":"San Antonio","zipcode":"78258","phone":"12107647876","latitude":29.6122,"longitude":-98.5099,"chainStoreId":"1354","created":1365570335984,"updated":1365570335984}
{"address":"665 Sleater Kinney Rd SE","state":"WA","city":"Lacey","zipcode":"98503","phone":"13604868920","latitude":47.0434,"longitude":-122.836,"chainStoreId":"1355","created":1365570335987,"updated":1365570335987}
{"address":"4848 County Road 101","state":"MN","city":"Minnetonka","zipcode":"55345","phone":"19524013830","latitude":44.9169,"longitude":-93.5049,"chainStoreId":"1356","created":1365570335990,"updated":1365570335990}
{"address":"275 S River Rd","state":"UT","city":"Saint George","zipcode":"84790","phone":"14356272030","latitude":37.1013,"longitude":-113.555,"chainStoreId":"1357","created":1365570335993,"updated":1365570335993}
{"address":"6000 Highway 6","state":"TX","city":"Missouri City","zipcode":"77459","phone":"12814036662","latitude":29.5642,"longitude":-95.5647,"chainStoreId":"1359","created":1365570335997,"updated":1365570335997}
{"address":"21001 N Tatum Blvd Ste 20","state":"AZ","city":"Phoenix","zipcode":"85050","phone":"14804199380","latitude":33.6747,"longitude":-111.974,"chainStoreId":"1360","created":1365570336001,"updated":1365570336001}
{"address":"9350 W Northern Ave","state":"AZ","city":"Glendale","zipcode":"85305","phone":"16238778440","latitude":33.5546,"longitude":-112.261,"chainStoreId":"1361","created":1365570336005,"updated":1365570336005}
{"address":"1800 W Empire Ave","state":"CA","city":"Burbank","zipcode":"91504","phone":"18182380132","latitude":34.1893,"longitude":-118.33,"chainStoreId":"1362","created":1365570336010,"updated":1365570336010}
{"address":"6845 Sierra Center Pkwy","state":"NV","city":"Reno","zipcode":"89511","phone":"17758538900","latitude":39.4636,"longitude":-119.781,"chainStoreId":"1363","created":1365570336013,"updated":1365570336013}
{"address":"751 Route 73 S","state":"NJ","city":"Marlton","zipcode":"8053","phone":"18568108442","latitude":39.8672,"longitude":-74.9229,"chainStoreId":"1365","created":1365570336016,"updated":1365570336016}
{"address":"10401 N Michigan Rd","state":"IN","city":"Carmel","zipcode":"46032","phone":"13178760809","latitude":39.9364,"longitude":-86.2324,"chainStoreId":"1366","created":1365570336023,"updated":1365570336023}
{"address":"2750 Carl T Jones Dr SE Ste 7","state":"AL","city":"Huntsville","zipcode":"35802","phone":"12566503491","latitude":34.6729,"longitude":-86.5414,"chainStoreId":"1367","created":1365570336027,"updated":1365570336027}
{"address":"1401 W Glade Rd","state":"TX","city":"Euless","zipcode":"76039","phone":"18173998494","latitude":32.882,"longitude":-97.1016,"chainStoreId":"1368","created":1365570336031,"updated":1365570336031}
{"address":"6885 Siegen Ln","state":"LA","city":"Baton Rouge","zipcode":"70809","phone":"12252930984","latitude":30.3851,"longitude":-91.0601,"chainStoreId":"1369","created":1365570336035,"updated":1365570336035}
{"address":"301 Veterans Pkwy","state":"IL","city":"Normal","zipcode":"61761","phone":"13094545648","latitude":40.5064,"longitude":-88.9555,"chainStoreId":"137","created":1365570336038,"updated":1365570336038}
{"address":"11100 Parkside Dr","state":"TN","city":"Knoxville","zipcode":"37934","phone":"18656758200","latitude":35.9009,"longitude":-84.1487,"chainStoreId":"1370","created":1365570336040,"updated":1365570336040}
{"address":"1900 Springsteen Rd","state":"SC","city":"Rock Hill","zipcode":"29730","phone":"18039853040","latitude":34.9388,"longitude":-80.9784,"chainStoreId":"1371","created":1365570336043,"updated":1365570336043}
{"address":"474 Chamberlain Hwy","state":"CT","city":"Meriden","zipcode":"6451","phone":"12036346049","latitude":41.5526,"longitude":-72.8153,"chainStoreId":"1373","created":1365570336046,"updated":1365570336046}
{"address":"79 Commerce Way","state":"MA","city":"Seekonk","zipcode":"2771","phone":"15083361117","latitude":41.7957,"longitude":-71.3208,"chainStoreId":"1374","created":1365570336048,"updated":1365570336048}
{"address":"900 Nicollet Mall","state":"MN","city":"Minneapolis","zipcode":"55403","phone":"16123380085","latitude":44.9748,"longitude":-93.2749,"chainStoreId":"1375","created":1365570336051,"updated":1365570336051}
{"address":"255 Marina Bay Dr","state":"TX","city":"Clear Lake Shores","zipcode":"77565","phone":"12815387626","latitude":29.5393,"longitude":-95.0244,"chainStoreId":"1377","created":1365570336054,"updated":1365570336054}
{"address":"2331 State Rte 66","state":"NJ","city":"Ocean","zipcode":"7712","phone":"17329186645","latitude":40.2307,"longitude":-74.0448,"chainStoreId":"1378","created":1365570336057,"updated":1365570336057}
{"address":"4685 Presidential Pkwy","state":"GA","city":"Macon","zipcode":"31206","phone":"14784050273","latitude":32.8176,"longitude":-83.7145,"chainStoreId":"1379","created":1365570336060,"updated":1365570336060}
{"address":"2929 Watson Blvd","state":"GA","city":"Warner Robins","zipcode":"31093","phone":"14789712141","latitude":32.6167,"longitude":-83.6859,"chainStoreId":"1380","created":1365570336062,"updated":1365570336062}
{"address":"2205 Walker Lake Rd","state":"OH","city":"Mansfield","zipcode":"44903","phone":"14197471313","latitude":40.7867,"longitude":-82.5947,"chainStoreId":"1381","created":1365570336065,"updated":1365570336065}
{"address":"1201 County Road 581","state":"FL","city":"Wesley Chapel","zipcode":"33544","phone":"18139076687","latitude":28.1729,"longitude":-82.3556,"chainStoreId":"1382","created":1365570336068,"updated":1365570336068}
{"address":"1893 W Malvern Ave","state":"CA","city":"Fullerton","zipcode":"92833","phone":"17142781024","latitude":33.8799,"longitude":-117.963,"chainStoreId":"1383","created":1365570336070,"updated":1365570336070}
{"address":"9100 Rosedale Hwy","state":"CA","city":"Bakersfield","zipcode":"93312","phone":"16615890554","latitude":35.3846,"longitude":-119.103,"chainStoreId":"1384","created":1365570336073,"updated":1365570336073}
{"address":"1400 W Lake Cook Rd","state":"IL","city":"Wheeling","zipcode":"60090","phone":"18472155051","latitude":42.1546,"longitude":-87.951,"chainStoreId":"1385","created":1365570336075,"updated":1365570336075}
{"address":"2151 N Power Rd","state":"AZ","city":"Mesa","zipcode":"85215","phone":"14808302035","latitude":33.4537,"longitude":-111.682,"chainStoreId":"1386","created":1365570336078,"updated":1365570336078}
{"address":"4375 N Chouteau Trfy","state":"MO","city":"Kansas City","zipcode":"64117","phone":"18164522164","latitude":39.1739,"longitude":-94.5333,"chainStoreId":"1388","created":1365570336082,"updated":1365570336082}
{"address":"1900 Deptford Center Rd","state":"NJ","city":"Deptford","zipcode":"8096","phone":"18564018878","latitude":39.8297,"longitude":-75.0918,"chainStoreId":"1389","created":1365570336084,"updated":1365570336084}
{"address":"2209 State St","state":"IN","city":"New Albany","zipcode":"47150","phone":"18129455046","latitude":38.3053,"longitude":-85.8416,"chainStoreId":"139","created":1365570336087,"updated":1365570336087}
{"address":"4241 Lavista Rd","state":"GA","city":"Tucker","zipcode":"30084","phone":"17702705375","latitude":33.8452,"longitude":-84.2458,"chainStoreId":"1390","created":1365570336089,"updated":1365570336089}
{"address":"2070 Sam Rittenberg Blvd","state":"SC","city":"Charleston","zipcode":"29407","phone":"18437630756","latitude":32.7981,"longitude":-80.0321,"chainStoreId":"1391","created":1365570336092,"updated":1365570336092}
{"address":"1850 NW Chipman Rd","state":"MO","city":"Lees Summit","zipcode":"64081","phone":"18165241405","latitude":38.9314,"longitude":-94.4091,"chainStoreId":"1392","created":1365570336094,"updated":1365570336094}
{"address":"100 Rivers Edge","state":"OH","city":"Milford","zipcode":"45150","phone":"15138315294","latitude":39.1622,"longitude":-84.2752,"chainStoreId":"1393","created":1365570336097,"updated":1365570336097}
{"address":"1525 Market Place Blvd","state":"GA","city":"Cumming","zipcode":"30041","phone":"16784559618","latitude":34.1861,"longitude":-84.1341,"chainStoreId":"1394","created":1365570336105,"updated":1365570336105}
{"address":"725 Hebron Pkwy","state":"TX","city":"Lewisville","zipcode":"75057","phone":"19724592605","latitude":33.0104,"longitude":-96.9686,"chainStoreId":"1395","created":1365570336108,"updated":1365570336108}
{"address":"5757 Fairmont Pkwy","state":"TX","city":"Pasadena","zipcode":"77505","phone":"12815040143","latitude":29.6516,"longitude":-95.1539,"chainStoreId":"1396","created":1365570336111,"updated":1365570336111}
{"address":"13924 N Pennsylvania Ave","state":"OK","city":"Oklahoma City","zipcode":"73134","phone":"14057520183","latitude":35.6126,"longitude":-97.5477,"chainStoreId":"1397","created":1365570336114,"updated":1365570336114}
{"address":"1200 E 2nd St","state":"OK","city":"Edmond","zipcode":"73034","phone":"14058445072","latitude":35.6507,"longitude":-97.4636,"chainStoreId":"1398","created":1365570336116,"updated":1365570336116}
{"address":"1720 W Prien Lake Rd","state":"LA","city":"Lake Charles","zipcode":"70601","phone":"13374742391","latitude":30.1996,"longitude":-93.2467,"chainStoreId":"1399","created":1365570336118,"updated":1365570336118}
{"address":"5220 Jimmy Lee Smith Pkwy","state":"GA","city":"Hiram","zipcode":"30141","phone":"16785670142","latitude":33.886,"longitude":-84.7445,"chainStoreId":"1400","created":1365570336121,"updated":1365570336121}
{"address":"519 Gateway Dr","state":"NY","city":"Brooklyn","zipcode":"11239","phone":"17182356032","latitude":40.6522,"longitude":-73.8697,"chainStoreId":"1401","created":1365570336124,"updated":1365570336124}
{"address":"3020 Route 34","state":"IL","city":"Oswego","zipcode":"60543","phone":"16305544000","latitude":41.6967,"longitude":-88.3167,"chainStoreId":"1402","created":1365570336126,"updated":1365570336126}
{"address":"12800 S State Route 59","state":"IL","city":"Plainfield","zipcode":"60585","phone":"18155775100","latitude":41.6498,"longitude":-88.2052,"chainStoreId":"1403","created":1365570336130,"updated":1365570336130}
{"address":"371 Putnam Pike Ste A-250","state":"RI","city":"Smithfield","zipcode":"2917","phone":"14012321699","latitude":41.8765,"longitude":-71.5187,"chainStoreId":"1404","created":1365570336133,"updated":1365570336133}
{"address":"4575 W 11th Ave","state":"OR","city":"Eugene","zipcode":"97402","phone":"15416845995","latitude":44.0492,"longitude":-123.171,"chainStoreId":"1405","created":1365570336137,"updated":1365570336137}
{"address":"21500 NE Halsey St","state":"OR","city":"Fairview","zipcode":"97024","phone":"15036749109","latitude":45.5327,"longitude":-122.443,"chainStoreId":"1406","created":1365570336140,"updated":1365570336140}
{"address":"133 Serramonte Ctr","state":"CA","city":"Daly City","zipcode":"94015","phone":"16507552393","latitude":37.6704,"longitude":-122.471,"chainStoreId":"1407","created":1365570336144,"updated":1365570336144}
{"address":"2626 Colorado Blvd","state":"CA","city":"Los Angeles","zipcode":"90041","phone":"13232581355","latitude":34.1414,"longitude":-118.225,"chainStoreId":"1408","created":1365570336146,"updated":1365570336146}
{"address":"141 Lakewood Center Mall","state":"CA","city":"Lakewood","zipcode":"90712","phone":"15628940019","latitude":33.8522,"longitude":-118.141,"chainStoreId":"1409","created":1365570336148,"updated":1365570336148}
{"address":"1288 Camino Del Rio N","state":"CA","city":"San Diego","zipcode":"92108","phone":"16195420025","latitude":32.7693,"longitude":-117.147,"chainStoreId":"1410","created":1365570336151,"updated":1365570336151}
{"address":"3600 Rosemead Blvd","state":"CA","city":"Rosemead","zipcode":"91770","phone":"16262808024","latitude":34.0749,"longitude":-118.07,"chainStoreId":"1411","created":1365570336153,"updated":1365570336153}
{"address":"1400 S Havana St","state":"CO","city":"Aurora","zipcode":"80012","phone":"13037558530","latitude":39.6939,"longitude":-104.863,"chainStoreId":"1413","created":1365570336155,"updated":1365570336155}
{"address":"200 Butler Commons","state":"PA","city":"Butler","zipcode":"16001","phone":"17242832489","latitude":40.8754,"longitude":-79.9419,"chainStoreId":"1414","created":1365570336157,"updated":1365570336157}
{"address":"11160 Veirs Mill Rd","state":"MD","city":"Silver Spring","zipcode":"20902","phone":"13019468006","latitude":39.0365,"longitude":-77.055,"chainStoreId":"1415","created":1365570336159,"updated":1365570336159}
{"address":"6600 Springfield Mall","state":"VA","city":"Springfield","zipcode":"22150","phone":"17039210220","latitude":38.7748,"longitude":-77.1756,"chainStoreId":"1416","created":1365570336161,"updated":1365570336161}
{"address":"5740 N Blackstone Ave","state":"CA","city":"Fresno","zipcode":"93710","phone":"15594318622","latitude":36.8222,"longitude":-119.788,"chainStoreId":"1417","created":1365570336163,"updated":1365570336163}
{"address":"200 W Orangethorpe Ave","state":"CA","city":"Fullerton","zipcode":"92832","phone":"17149924565","latitude":33.8584,"longitude":-117.925,"chainStoreId":"1418","created":1365570336165,"updated":1365570336165}
{"address":"4200 Portsmouth Blvd","state":"VA","city":"Chesapeake","zipcode":"23321","phone":"17574658400","latitude":36.8269,"longitude":-76.4142,"chainStoreId":"1420","created":1365570336167,"updated":1365570336167}
{"address":"2525 4th St","state":"CA","city":"Eureka","zipcode":"95501","phone":"17074420201","latitude":40.8055,"longitude":-124.145,"chainStoreId":"1421","created":1365570336169,"updated":1365570336169}
{"address":"39201 Fremont Blvd","state":"CA","city":"Fremont","zipcode":"94538","phone":"15107956305","latitude":37.5451,"longitude":-121.985,"chainStoreId":"1422","created":1365570336171,"updated":1365570336171}
{"address":"9052 Central Ave","state":"CA","city":"Montclair","zipcode":"91763","phone":"19096245717","latitude":34.0894,"longitude":-117.692,"chainStoreId":"1423","created":1365570336173,"updated":1365570336173}
{"address":"12051 Imperial Hwy","state":"CA","city":"Norwalk","zipcode":"90650","phone":"15624095036","latitude":33.9184,"longitude":-118.076,"chainStoreId":"1424","created":1365570336175,"updated":1365570336175}
{"address":"8800 Whittier Blvd","state":"CA","city":"Pico Rivera","zipcode":"90660","phone":"15629496200","latitude":34.0016,"longitude":-118.086,"chainStoreId":"1425","created":1365570336177,"updated":1365570336177}
{"address":"450 N Capital Ave","state":"CA","city":"San Jose","zipcode":"95133","phone":"14082548931","latitude":37.3723,"longitude":-121.843,"chainStoreId":"1426","created":1365570336180,"updated":1365570336180}
{"address":"1600 Saratoga Ave","state":"CA","city":"San Jose","zipcode":"95129","phone":"14088717984","latitude":37.2919,"longitude":-121.989,"chainStoreId":"1427","created":1365570336182,"updated":1365570336182}
{"address":"15555 E 14th St Ste 400","state":"CA","city":"San Leandro","zipcode":"94578","phone":"15102762699","latitude":37.6997,"longitude":-122.126,"chainStoreId":"1428","created":1365570336184,"updated":1365570336184}
{"address":"1230 S Longmore Ave","state":"AZ","city":"Mesa","zipcode":"85202","phone":"14802810105","latitude":33.3919,"longitude":-111.865,"chainStoreId":"1429","created":1365570336186,"updated":1365570336186}
{"address":"601 S Plano Rd","state":"TX","city":"Richardson","zipcode":"75081","phone":"12145300183","latitude":32.9434,"longitude":-96.6976,"chainStoreId":"1430","created":1365570336194,"updated":1365570336194}
{"address":"16825 E Shea Blvd","state":"AZ","city":"Fountain Hills","zipcode":"85268","phone":"14808378557","latitude":33.5738,"longitude":-111.718,"chainStoreId":"1432","created":1365570336196,"updated":1365570336196}
{"address":"984 Gessner Rd","state":"TX","city":"Houston","zipcode":"77024","phone":"17133000227","latitude":29.7826,"longitude":-95.5427,"chainStoreId":"1435","created":1365570336199,"updated":1365570336199}
{"address":"8509 State Line Rd","state":"MO","city":"Kansas City","zipcode":"64114","phone":"18164446012","latitude":38.9724,"longitude":-94.6075,"chainStoreId":"1436","created":1365570336201,"updated":1365570336201}
{"address":"2939 W Addison St","state":"IL","city":"Chicago","zipcode":"60618","phone":"17736047680","latitude":41.9454,"longitude":-87.7005,"chainStoreId":"1437","created":1365570336203,"updated":1365570336203}
{"address":"4000 Bel Aire Plaza","state":"CA","city":"Napa","zipcode":"94558","phone":"17072253016","latitude":38.3221,"longitude":-122.3075,"chainStoreId":"1438","created":1365570336205,"updated":1365570336205}
{"address":"3699 E Broadway Blvd","state":"AZ","city":"Tucson","zipcode":"85716","phone":"15209170116","latitude":32.2228,"longitude":-110.918,"chainStoreId":"1439","created":1365570336207,"updated":1365570336207}
{"address":"2050 Gallatin Rd N","state":"TN","city":"Madison","zipcode":"37115","phone":"16158595260","latitude":36.3037,"longitude":-86.6941,"chainStoreId":"144","created":1365570336210,"updated":1365570336210}
{"address":"550 Arsenal St","state":"MA","city":"Watertown","zipcode":"2472","phone":"16179246574","latitude":42.3639,"longitude":-71.158,"chainStoreId":"1442","created":1365570336212,"updated":1365570336212}
{"address":"16200 SE Mill Plain Blvd","state":"WA","city":"Vancouver","zipcode":"98684","phone":"13604496420","latitude":45.6165,"longitude":-122.506,"chainStoreId":"1444","created":1365570336215,"updated":1365570336215}
{"address":"749 Apollo Dr","state":"MN","city":"Lino Lakes","zipcode":"55014","phone":"16517847601","latitude":45.1841,"longitude":-93.105,"chainStoreId":"1448","created":1365570336218,"updated":1365570336218}
{"address":"4500 Veterans Memorial Blvd","state":"LA","city":"Metairie","zipcode":"70006","phone":"15048882184","latitude":30.003,"longitude":-90.1828,"chainStoreId":"1449","created":1365570336220,"updated":1365570336220}
{"address":"3045 Silverlake Village St","state":"TX","city":"Pearland","zipcode":"77584","phone":"17134364892","latitude":29.5537,"longitude":-95.3841,"chainStoreId":"1459","created":1365570336224,"updated":1365570336224}
{"address":"26 White Bridge Rd","state":"TN","city":"Nashville","zipcode":"37205","phone":"16153528461","latitude":36.1307,"longitude":-86.8539,"chainStoreId":"146","created":1365570336226,"updated":1365570336226}
{"address":"17605 S Halsted St","state":"IL","city":"Homewood","zipcode":"60430","phone":"17083355250","latitude":41.569,"longitude":-87.6346,"chainStoreId":"1460","created":1365570336229,"updated":1365570336229}
{"address":"6767 S Clinton St","state":"CO","city":"Englewood","zipcode":"80112","phone":"13037902583","latitude":39.5932,"longitude":-104.882,"chainStoreId":"147","created":1365570336233,"updated":1365570336233}
{"address":"2070 Thundering Herd Rd","state":"WV","city":"Barboursville","zipcode":"25504","phone":"13047367767","latitude":38.4207,"longitude":-82.288,"chainStoreId":"1478","created":1365570336239,"updated":1365570336239}
{"address":"7400 N 10th St","state":"TX","city":"Mcallen","zipcode":"78504","phone":"19569941815","latitude":26.2689,"longitude":-98.2168,"chainStoreId":"1490","created":1365570336243,"updated":1365570336243}
{"address":"130 State Route 10","state":"NJ","city":"East Hanover","zipcode":"7936","phone":"19738873145","latitude":40.8122,"longitude":-74.3799,"chainStoreId":"1491","created":1365570336244,"updated":1365570336244}
{"address":"450 Azalea Square Blvd","state":"SC","city":"Summerville","zipcode":"29483","phone":"18438320429","latitude":33.0397,"longitude":-80.1573,"chainStoreId":"1493","created":1365570336246,"updated":1365570336246}
{"address":"1919 Wells Rd","state":"FL","city":"Orange Park","zipcode":"32073","phone":"19042642748","latitude":30.1883,"longitude":-81.7366,"chainStoreId":"1503","created":1365570336249,"updated":1365570336249}
{"address":"594 River Hwy","state":"NC","city":"Mooresville","zipcode":"28117","phone":"17047991233","latitude":35.5977,"longitude":-80.8715,"chainStoreId":"1505","created":1365570336258,"updated":1365570336258}
{"address":"4500 Macdonald Ave","state":"CA","city":"Richmond","zipcode":"94805","phone":"15102531000","latitude":37.932,"longitude":-122.3264,"chainStoreId":"1507","created":1365570336260,"updated":1365570336260}
{"address":"8040 Ray Mears Blvd","state":"TN","city":"Knoxville","zipcode":"37919","phone":"18656932203","latitude":35.9255,"longitude":-84.043,"chainStoreId":"151","created":1365570336262,"updated":1365570336262}
{"address":"1600 N Cedar Crest Blvd","state":"PA","city":"Allentown","zipcode":"18104","phone":"16103984006","latitude":40.6131,"longitude":-75.5363,"chainStoreId":"1510","created":1365570336264,"updated":1365570336264}
{"address":"1004 Andrews Run","state":"TN","city":"Hendersonville","zipcode":"37075","phone":"16158266895","latitude":36.3343,"longitude":-86.6256,"chainStoreId":"1511","created":1365570336265,"updated":1365570336265}
{"address":"16901 Miramar Pkwy","state":"FL","city":"Miramar","zipcode":"33027","phone":"19544352571","latitude":25.98,"longitude":-80.372,"chainStoreId":"1512","created":1365570336269,"updated":1365570336269}
{"address":"7311 Jefferson Blvd","state":"KY","city":"Louisville","zipcode":"40219","phone":"15029641053","latitude":38.141,"longitude":-85.6722,"chainStoreId":"1513","created":1365570336287,"updated":1365570336287}
{"address":"8532 Davis Blvd","state":"TX","city":"North Richland Hills","zipcode":"76182","phone":"18175030548","latitude":32.9098,"longitude":-97.1877,"chainStoreId":"1514","created":1365570336289,"updated":1365570336289}
{"address":"4255 Hampton Ave","state":"MO","city":"Saint Louis","zipcode":"63109","phone":"13148020122","latitude":38.5925,"longitude":-90.2954,"chainStoreId":"1515","created":1365570336291,"updated":1365570336291}
{"address":"423 Donald Lynch Blvd","state":"MA","city":"Marlborough","zipcode":"1752","phone":"15085731004","latitude":42.3595,"longitude":-71.6066,"chainStoreId":"1516","created":1365570336293,"updated":1365570336293}
{"address":"5959 Long Prairie Rd","state":"TX","city":"Flower Mound","zipcode":"75028","phone":"19728746700","latitude":33.0683,"longitude":-97.0807,"chainStoreId":"1517","created":1365570336295,"updated":1365570336295}
{"address":"4750 Millenia Plaza Way","state":"FL","city":"Orlando","zipcode":"32839","phone":"14075410019","latitude":28.494,"longitude":-81.4287,"chainStoreId":"1518","created":1365570336297,"updated":1365570336297}
{"address":"2660 East Hwy 50","state":"FL","city":"Clermont","zipcode":"34711","phone":"13523948510","latitude":28.5491,"longitude":-81.7053,"chainStoreId":"1519","created":1365570336299,"updated":1365570336299}
{"address":"5300 Durand Ave","state":"WI","city":"Racine","zipcode":"53406","phone":"12625546998","latitude":42.6992,"longitude":-87.8436,"chainStoreId":"152","created":1365570336301,"updated":1365570336301}
{"address":"100 Quality Dr","state":"NH","city":"Hooksett","zipcode":"3106","phone":"16036211451","latitude":43.0457,"longitude":-71.461,"chainStoreId":"1520","created":1365570336310,"updated":1365570336310}
{"address":"7 Stony Hill Rd","state":"CT","city":"Bethel","zipcode":"6801","phone":"12034481029","latitude":41.4155,"longitude":-73.4015,"chainStoreId":"1528","created":1365570336312,"updated":1365570336312}
{"address":"5240 N Academy Blvd","state":"CO","city":"Colorado Springs","zipcode":"80918","phone":"17195949600","latitude":38.9054,"longitude":-104.78,"chainStoreId":"154","created":1365570336412,"updated":1365570336412}
{"address":"2615 Tuscanny St","state":"CA","city":"Corona","zipcode":"92881","phone":"19512773075","latitude":33.8244,"longitude":-117.511,"chainStoreId":"1548","created":1365570336415,"updated":1365570336415}
{"address":"5850 Eastex Fwy","state":"TX","city":"Beaumont","zipcode":"77708","phone":"14098988270","latitude":30.1268,"longitude":-94.1546,"chainStoreId":"158","created":1365570336421,"updated":1365570336421}
{"address":"4000 McCain Blvd","state":"AR","city":"North Little Rock","zipcode":"72116","phone":"15017714220","latitude":34.7886,"longitude":-92.2284,"chainStoreId":"162","created":1365570336428,"updated":1365570336428}
{"address":"401 SE Wyoming Blvd","state":"WY","city":"Casper","zipcode":"82609","phone":"13072658214","latitude":42.8474,"longitude":-106.264,"chainStoreId":"164","created":1365570336433,"updated":1365570336433}
{"address":"2206 Memorial Dr","state":"LA","city":"Alexandria","zipcode":"71301","phone":"13184484351","latitude":31.2808,"longitude":-92.4613,"chainStoreId":"167","created":1365570336439,"updated":1365570336439}
{"address":"2601 Central Ave","state":"MT","city":"Billings","zipcode":"59102","phone":"14066525430","latitude":45.7705,"longitude":-108.583,"chainStoreId":"171","created":1365570336446,"updated":1365570336446}
{"address":"200 N Market Place Dr","state":"UT","city":"Centerville","zipcode":"84014","phone":"18012920071","latitude":40.9182,"longitude":-111.887,"chainStoreId":"1750","created":1365570336453,"updated":1365570336453}
{"address":"7025 Park Centre Dr","state":"UT","city":"Salt Lake City","zipcode":"84121","phone":"18012552292","latitude":40.6229,"longitude":-111.85,"chainStoreId":"1751","created":1365570336469,"updated":1365570336469}
{"address":"10130 S State St","state":"UT","city":"Sandy","zipcode":"84070","phone":"18012553301","latitude":40.5667,"longitude":-111.892,"chainStoreId":"1752","created":1365570336486,"updated":1365570336486}
{"address":"13700 San Pedro Ave","state":"TX","city":"San Antonio","zipcode":"78232","phone":"12104966800","latitude":29.565,"longitude":-98.4798,"chainStoreId":"176","created":1365570336488,"updated":1365570336488}
{"address":"1135 Woodstock Rd","state":"GA","city":"Roswell","zipcode":"30075","phone":"17709980144","latitude":34.0637,"longitude":-84.3976,"chainStoreId":"1761","created":1365570336506,"updated":1365570336506}
{"address":"3201 Preston Rd","state":"TX","city":"Frisco","zipcode":"75034","phone":"19726686880","latitude":33.1048,"longitude":-96.8123,"chainStoreId":"1763","created":1365570336509,"updated":1365570336509}
{"address":"8000 Denton Hwy","state":"TX","city":"Watauga","zipcode":"76148","phone":"18174278039","latitude":32.8899,"longitude":-97.2572,"chainStoreId":"1765","created":1365570336512,"updated":1365570336512}
{"address":"1400 Precinct Line Rd","state":"TX","city":"Hurst","zipcode":"76053","phone":"18172828808","latitude":32.8366,"longitude":-97.1841,"chainStoreId":"1766","created":1365570336528,"updated":1365570336528}
{"address":"400 Marshall Rd","state":"CO","city":"Superior","zipcode":"80027","phone":"13032090106","latitude":39.9564,"longitude":-105.173,"chainStoreId":"1769","created":1365570336557,"updated":1365570336557}
{"address":"5700 Overton Ridge Blvd","state":"TX","city":"Fort Worth","zipcode":"76132","phone":"18174231600","latitude":32.6787,"longitude":-97.4134,"chainStoreId":"1770","created":1365570336579,"updated":1365570336579}
{"address":"16731 Coit Rd","state":"TX","city":"Dallas","zipcode":"75248","phone":"12147750206","latitude":32.9826,"longitude":-96.7692,"chainStoreId":"1775","created":1365570336582,"updated":1365570336582}
{"address":"17810 W Center Rd","state":"NE","city":"Omaha","zipcode":"68130","phone":"14026974930","latitude":41.2357,"longitude":-96.1934,"chainStoreId":"1777","created":1365570336589,"updated":1365570336589}
{"address":"7730 W Commercial Blvd","state":"FL","city":"Lauderhill","zipcode":"33351","phone":"19545726724","latitude":26.1919,"longitude":-80.2538,"chainStoreId":"1778","created":1365570336591,"updated":1365570336591}
{"address":"3935 Venture Dr","state":"GA","city":"Duluth","zipcode":"30096","phone":"17702321929","latitude":33.951,"longitude":-84.1439,"chainStoreId":"1779","created":1365570336593,"updated":1365570336593}
{"address":"140 Woodstock Square Ave","state":"GA","city":"Woodstock","zipcode":"30189","phone":"16784945307","latitude":34.0853,"longitude":-84.5456,"chainStoreId":"1780","created":1365570336610,"updated":1365570336610}
{"address":"10711 E 71st St","state":"OK","city":"Tulsa","zipcode":"74133","phone":"19183078161","latitude":36.0628,"longitude":-95.8565,"chainStoreId":"1782","created":1365570336626,"updated":1365570336626}
{"address":"3601 32nd Ave S","state":"ND","city":"Grand Forks","zipcode":"58201","phone":"17017876177","latitude":47.8873,"longitude":-97.0795,"chainStoreId":"1783","created":1365570336628,"updated":1365570336628}
{"address":"6419 Skillman St","state":"TX","city":"Dallas","zipcode":"75231","phone":"12143480240","latitude":32.8661,"longitude":-96.7449,"chainStoreId":"1784","created":1365570336660,"updated":1365570336660}
{"address":"11311 Bandera Rd","state":"TX","city":"San Antonio","zipcode":"78250","phone":"12106822253","latitude":29.5481,"longitude":-98.6639,"chainStoreId":"1785","created":1365570336676,"updated":1365570336676}
{"address":"16300 Southwest Fwy","state":"TX","city":"Sugar Land","zipcode":"77479","phone":"12813400550","latitude":29.5968,"longitude":-95.6275,"chainStoreId":"1786","created":1365570336679,"updated":1365570336679}
{"address":"1901 13th Ave E","state":"AL","city":"Tuscaloosa","zipcode":"35404","phone":"12054621064","latitude":33.1933,"longitude":-87.5182,"chainStoreId":"1787","created":1365570336716,"updated":1365570336716}
{"address":"4850 E Southport Rd","state":"IN","city":"Indianapolis","zipcode":"46237","phone":"13177874169","latitude":39.6675,"longitude":-86.0849,"chainStoreId":"1789","created":1365570336749,"updated":1365570336749}
{"address":"5255 E Broadway Blvd","state":"AZ","city":"Tucson","zipcode":"85711","phone":"15207458001","latitude":32.2228,"longitude":-110.88,"chainStoreId":"179","created":1365570336758,"updated":1365570336758}
{"address":"1771 Dunlawton Ave","state":"FL","city":"Port Orange","zipcode":"32127","phone":"13863221348","latitude":29.11,"longitude":-81.028,"chainStoreId":"1795","created":1365570336775,"updated":1365570336775}
{"address":"625 3rd Ave Ext","state":"NY","city":"Rensselaer","zipcode":"12144","phone":"15182836476","latitude":42.6451,"longitude":-73.7007,"chainStoreId":"1796","created":1365570336778,"updated":1365570336778}
{"address":"10900 Lakeline Mall Dr","state":"TX","city":"Austin","zipcode":"78717","phone":"15126513376","latitude":30.4787,"longitude":-97.7968,"chainStoreId":"1797","created":1365570336824,"updated":1365570336824}
{"address":"5775 Sunnybrook Dr","state":"IA","city":"Sioux City","zipcode":"51106","phone":"17122748644","latitude":42.4514,"longitude":-96.3343,"chainStoreId":"1800","created":1365570336853,"updated":1365570336853}
{"address":"750 S Randall Rd","state":"IL","city":"Algonquin","zipcode":"60102","phone":"18474585340","latitude":42.1625,"longitude":-88.3399,"chainStoreId":"1801","created":1365570336881,"updated":1365570336881}
{"address":"14070 Cedar Rd","state":"OH","city":"University Heights","zipcode":"44118","phone":"12164160025","latitude":41.5007,"longitude":-81.5329,"chainStoreId":"1804","created":1365570336884,"updated":1365570336884}
{"address":"115 River Hills Rd","state":"NC","city":"Asheville","zipcode":"28805","phone":"18282981262","latitude":35.5732,"longitude":-82.5219,"chainStoreId":"1807","created":1365570336886,"updated":1365570336886}
{"address":"50 Spring Valley Market Pl","state":"NY","city":"Spring Valley","zipcode":"10977","phone":"18453715013","latitude":41.1047,"longitude":-74.0236,"chainStoreId":"1808","created":1365570336889,"updated":1365570336889}
{"address":"5769 Lone Tree Way","state":"CA","city":"Antioch","zipcode":"94531","phone":"19257520002","latitude":37.964,"longitude":-121.7381,"chainStoreId":"1819","created":1365570336893,"updated":1365570336893}
{"address":"2747 Gulf To Bay Blvd","state":"FL","city":"Clearwater","zipcode":"33759","phone":"17274310231","latitude":27.9589,"longitude":-82.7268,"chainStoreId":"1820","created":1365570336908,"updated":1365570336908}
{"address":"800 Commons Pl","state":"KS","city":"Manhattan","zipcode":"66503","phone":"17857703643","latitude":39.1719,"longitude":-96.6054,"chainStoreId":"1821","created":1365570336910,"updated":1365570336910}
{"address":"2576 Berryhill Rd","state":"AL","city":"Montgomery","zipcode":"36117","phone":"13343566265","latitude":32.3609,"longitude":-86.1621,"chainStoreId":"1825","created":1365570336912,"updated":1365570336912}
{"address":"14391 Chantilly Crossing Ln","state":"VA","city":"Chantilly","zipcode":"20151","phone":"15712620020","latitude":38.8964,"longitude":-77.4436,"chainStoreId":"1827","created":1365570336930,"updated":1365570336930}
{"address":"2800 Meadowbrook Mall","state":"WV","city":"Bridgeport","zipcode":"26330","phone":"13048427770","latitude":39.3094,"longitude":-80.2747,"chainStoreId":"1828","created":1365570336943,"updated":1365570336943}
{"address":"7250 Rivers Ave","state":"SC","city":"North Charleston","zipcode":"29406","phone":"18435534691","latitude":32.9344,"longitude":-80.0362,"chainStoreId":"1829","created":1365570336945,"updated":1365570336945}
{"address":"9725 Laurel Canyon Blvd","state":"CA","city":"Pacoima","zipcode":"91331","phone":"18188968214","latitude":34.2455,"longitude":-118.42,"chainStoreId":"183","created":1365570336946,"updated":1365570336946}
{"address":"578 Aviation Rd Ste 1S","state":"NY","city":"Queensbury","zipcode":"12804","phone":"15187926016","latitude":43.3279,"longitude":-73.6794,"chainStoreId":"1830","created":1365570336948,"updated":1365570336948}
{"address":"1500 109th Ave NE","state":"MN","city":"Blaine","zipcode":"55449","phone":"17633541000","latitude":45.1659,"longitude":-93.2329,"chainStoreId":"1832","created":1365570336977,"updated":1365570336977}
{"address":"1931 Campus Ave","state":"CA","city":"Upland","zipcode":"91784","phone":"19099850348","latitude":34.133,"longitude":-117.641,"chainStoreId":"1834","created":1365570337008,"updated":1365570337008}
{"address":"3425 W Frye Rd","state":"AZ","city":"Chandler","zipcode":"85226","phone":"14802810007","latitude":33.2963,"longitude":-111.899,"chainStoreId":"1838","created":1365570337010,"updated":1365570337010}
{"address":"367 Russell St","state":"MA","city":"Hadley","zipcode":"1035","phone":"14135865945","latitude":42.3573,"longitude":-72.5476,"chainStoreId":"1839","created":1365570337011,"updated":1365570337011}
{"address":"2120 W Main St","state":"CA","city":"Alhambra","zipcode":"91801","phone":"16263083290","latitude":34.0908,"longitude":-118.148,"chainStoreId":"184","created":1365570337013,"updated":1365570337013}
{"address":"2755 Canyon Springs Pkwy","state":"CA","city":"Riverside","zipcode":"92507","phone":"19516976778","latitude":33.939,"longitude":-117.282,"chainStoreId":"1843","created":1365570337015,"updated":1365570337015}
{"address":"3424 College Ave","state":"CA","city":"San Diego","zipcode":"92115","phone":"16194710025","latitude":32.7414,"longitude":-117.054,"chainStoreId":"1846","created":1365570337017,"updated":1365570337017}
{"address":"25925 SW Heather Pl","state":"OR","city":"Wilsonville","zipcode":"97070","phone":"15036827781","latitude":45.3332,"longitude":-122.767,"chainStoreId":"1847","created":1365570337019,"updated":1365570337019}
{"address":"139 Flatbush Ave","state":"NY","city":"Brooklyn","zipcode":"11217","phone":"17182901109","latitude":40.685,"longitude":-73.9766,"chainStoreId":"1849","created":1365570337021,"updated":1365570337021}
{"address":"3730 Belt Line Rd","state":"TX","city":"Addison","zipcode":"75001","phone":"12144140025","latitude":32.9514,"longitude":-96.8537,"chainStoreId":"1850","created":1365570337022,"updated":1365570337022}
{"address":"6705 Camino Arroyo","state":"CA","city":"Gilroy","zipcode":"95020","phone":"14088486466","latitude":37.0009,"longitude":-121.551,"chainStoreId":"1851","created":1365570337046,"updated":1365570337046}
{"address":"6331 Roosevelt Blvd","state":"FL","city":"Jacksonville","zipcode":"32244","phone":"19045961065","latitude":30.2352,"longitude":-81.6953,"chainStoreId":"1853","created":1365570337048,"updated":1365570337048}
{"address":"5700 Bou Ave","state":"MD","city":"Rockville","zipcode":"20852","phone":"13019450018","latitude":39.0558,"longitude":-77.1167,"chainStoreId":"1854","created":1365570337050,"updated":1365570337050}
{"address":"60 Longview Dr","state":"ME","city":"Bangor","zipcode":"4401","phone":"12079453133","latitude":44.8423,"longitude":-68.7418,"chainStoreId":"1855","created":1365570337052,"updated":1365570337052}
{"address":"2001 South Rd","state":"NY","city":"Poughkeepsie","zipcode":"12601","phone":"18452970938","latitude":41.6258,"longitude":-73.9197,"chainStoreId":"1856","created":1365570337068,"updated":1365570337068}
{"address":"1090 Stafford Market Pl","state":"VA","city":"Stafford","zipcode":"22556","phone":"15406589901","latitude":38.4692,"longitude":-77.4086,"chainStoreId":"1857","created":1365570337085,"updated":1365570337085}
{"address":"8315 N Rockwell Ave","state":"OK","city":"Oklahoma City","zipcode":"73132","phone":"14055066086","latitude":35.5561,"longitude":-97.6401,"chainStoreId":"1860","created":1365570337093,"updated":1365570337093}
{"address":"9615 E Old Spanish Trl","state":"AZ","city":"Tucson","zipcode":"85748","phone":"15202964290","latitude":32.2081,"longitude":-110.788,"chainStoreId":"1863","created":1365570337117,"updated":1365570337117}
{"address":"7101 Tonnelle Ave","state":"NJ","city":"North Bergen","zipcode":"7047","phone":"12015201701","latitude":40.802,"longitude":-74.0217,"chainStoreId":"1865","created":1365570337139,"updated":1365570337139}
{"address":"694 Fairview Rd","state":"SC","city":"Simpsonville","zipcode":"29680","phone":"18649637251","latitude":34.7064,"longitude":-82.2558,"chainStoreId":"1870","created":1365570337155,"updated":1365570337155}
{"address":"403 Constant Friendship Blvd","state":"MD","city":"Abingdon","zipcode":"21009","phone":"14106709000","latitude":39.4603,"longitude":-76.3167,"chainStoreId":"1871","created":1365570337162,"updated":1365570337162}
{"address":"4037 Durham Chapel Hill Blvd","state":"NC","city":"Durham","zipcode":"27707","phone":"19197650008","latitude":35.9674,"longitude":-78.9582,"chainStoreId":"1872","created":1365570337187,"updated":1365570337187}
{"address":"13301 Gateway Center Dr","state":"VA","city":"Gainesville","zipcode":"20155","phone":"15712615052","latitude":38.7946,"longitude":-77.6071,"chainStoreId":"1873","created":1365570337189,"updated":1365570337189}
{"address":"1200 Edwards Ferry Rd","state":"VA","city":"Leesburg","zipcode":"20176","phone":"17037778730","latitude":39.1155,"longitude":-77.5332,"chainStoreId":"1874","created":1365570337233,"updated":1365570337233}
{"address":"2251 York Crossing Dr","state":"PA","city":"York","zipcode":"17408","phone":"17177649661","latitude":39.9642,"longitude":-76.7787,"chainStoreId":"1875","created":1365570337235,"updated":1365570337235}
{"address":"69320 Highway 21","state":"LA","city":"Covington","zipcode":"70433","phone":"19858717093","latitude":30.4433,"longitude":-90.1402,"chainStoreId":"1876","created":1365570337236,"updated":1365570337236}
{"address":"3100 Highway 365 Ste 90","state":"TX","city":"Port Arthur","zipcode":"77642","phone":"14097293201","latitude":29.9477,"longitude":-93.9877,"chainStoreId":"1877","created":1365570337238,"updated":1365570337238}
{"address":"4433 S Pulaski Rd","state":"IL","city":"Chicago","zipcode":"60632","phone":"17735792120","latitude":41.8122,"longitude":-87.7228,"chainStoreId":"1879","created":1365570337240,"updated":1365570337240}
{"address":"499 W Orange Show Rd","state":"CA","city":"San Bernardino","zipcode":"92408","phone":"19093813391","latitude":34.0787,"longitude":-117.292,"chainStoreId":"188","created":1365570337241,"updated":1365570337241}
{"address":"7601 Kingery Hwy","state":"IL","city":"Willowbrook","zipcode":"60527","phone":"16303212080","latitude":41.7491,"longitude":-87.944,"chainStoreId":"1882","created":1365570337243,"updated":1365570337243}
{"address":"100 14th St","state":"NJ","city":"Jersey City","zipcode":"7310","phone":"12014990017","latitude":40.7326,"longitude":-74.0357,"chainStoreId":"1886","created":1365570337245,"updated":1365570337245}
{"address":"501 Elsinger Blvd","state":"AR","city":"Conway","zipcode":"72032","phone":"15013285739","latitude":35.0871,"longitude":-92.4135,"chainStoreId":"1891","created":1365570337248,"updated":1365570337248}
{"address":"25901 Highway 290","state":"TX","city":"Cypress","zipcode":"77429","phone":"12812568116","latitude":29.9696,"longitude":-95.6962,"chainStoreId":"1894","created":1365570337249,"updated":1365570337249}
{"address":"3101 Donnell Dr","state":"MD","city":"District Heights","zipcode":"20747","phone":"13017781651","latitude":38.8483,"longitude":-76.8862,"chainStoreId":"1897","created":1365570337251,"updated":1365570337251}
{"address":"1701 S Yale Ave","state":"OK","city":"Tulsa","zipcode":"74112","phone":"19187441701","latitude":36.137,"longitude":-95.9205,"chainStoreId":"19","created":1365570337253,"updated":1365570337253}
{"address":"5405 Mills Civic Pkwy","state":"IA","city":"West Des Moines","zipcode":"50266","phone":"15152230262","latitude":41.5612,"longitude":-93.7794,"chainStoreId":"1901","created":1365570337275,"updated":1365570337275}
{"address":"1400 E Ireland Rd","state":"IN","city":"South Bend","zipcode":"46614","phone":"15742991402","latitude":41.6278,"longitude":-86.2291,"chainStoreId":"1902","created":1365570337293,"updated":1365570337293}
{"address":"28201 Diehl Rd","state":"IL","city":"Warrenville","zipcode":"60555","phone":"16306575555","latitude":41.8008,"longitude":-88.1705,"chainStoreId":"1903","created":1365570337295,"updated":1365570337295}
{"address":"14302 FM 2920 Rd","state":"TX","city":"Tomball","zipcode":"77377","phone":"12812556820","latitude":30.0915,"longitude":-95.6393,"chainStoreId":"1904","created":1365570337346,"updated":1365570337346}
{"address":"2140 E Baseline Rd","state":"AZ","city":"Phoenix","zipcode":"85042","phone":"16022811119","latitude":33.3791,"longitude":-112.034,"chainStoreId":"1905","created":1365570337355,"updated":1365570337355}
{"address":"140 N 12th Ave","state":"CA","city":"Hanford","zipcode":"93230","phone":"15595829298","latitude":36.3237,"longitude":-119.675,"chainStoreId":"1906","created":1365570337358,"updated":1365570337358}
{"address":"325 New Byhalia Rd","state":"TN","city":"Collierville","zipcode":"38017","phone":"19018600000","latitude":35.0496,"longitude":-89.6903,"chainStoreId":"1907","created":1365570337360,"updated":1365570337360}
{"address":"23710 Westheimer Pkwy","state":"TX","city":"Katy","zipcode":"77494","phone":"12813928331","latitude":29.7357,"longitude":-95.7763,"chainStoreId":"1908","created":1365570337383,"updated":1365570337383}
{"address":"8109 Mall Pkwy","state":"GA","city":"Lithonia","zipcode":"30038","phone":"16782590046","latitude":33.6916,"longitude":-84.0925,"chainStoreId":"1909","created":1365570337385,"updated":1365570337385}
{"address":"14065 Abercorn St","state":"GA","city":"Savannah","zipcode":"31419","phone":"19129252667","latitude":31.9839,"longitude":-81.175,"chainStoreId":"1910","created":1365570337387,"updated":1365570337387}
{"address":"1865 N National Rd","state":"IN","city":"Columbus","zipcode":"47201","phone":"18123760450","latitude":39.2192,"longitude":-85.885,"chainStoreId":"1911","created":1365570337388,"updated":1365570337388}
{"address":"3100 W IL Rte 60","state":"IL","city":"Mundelein","zipcode":"60060","phone":"18473672650","latitude":42.2841,"longitude":-88.0452,"chainStoreId":"1912","created":1365570337418,"updated":1365570337418}
{"address":"8005 Calumet Ave","state":"IN","city":"Munster","zipcode":"46321","phone":"12198362489","latitude":41.567,"longitude":-87.5076,"chainStoreId":"1913","created":1365570337436,"updated":1365570337436}
{"address":"675 Troy Schenectady Rd","state":"NY","city":"Latham","zipcode":"12110","phone":"15187820348","latitude":42.7577,"longitude":-73.7697,"chainStoreId":"1915","created":1365570337457,"updated":1365570337457}
{"address":"200 Universal Dr N","state":"CT","city":"North Haven","zipcode":"6473","phone":"12038593490","latitude":41.3511,"longitude":-72.8712,"chainStoreId":"1916","created":1365570337458,"updated":1365570337458}
{"address":"4 Centerton Rd","state":"NJ","city":"Mount Laurel","zipcode":"8054","phone":"18565331197","latitude":39.9683,"longitude":-74.9155,"chainStoreId":"1917","created":1365570337460,"updated":1365570337460}
{"address":"4795 W Irlo Bronson Memorial Hwy","state":"FL","city":"Kissimmee","zipcode":"34746","phone":"14075940029","latitude":28.3318,"longitude":-81.4717,"chainStoreId":"1918","created":1365570337462,"updated":1365570337462}
{"address":"3000 E Highland Dr Ste A","state":"AR","city":"Jonesboro","zipcode":"72401","phone":"18709349661","latitude":35.8228,"longitude":-90.6668,"chainStoreId":"1919","created":1365570337480,"updated":1365570337480}
{"address":"170 Promenade Blvd","state":"MS","city":"Flowood","zipcode":"39232","phone":"16019191415","latitude":32.3435,"longitude":-90.0586,"chainStoreId":"1920","created":1365570337483,"updated":1365570337483}
{"address":"13740 Beach Blvd","state":"FL","city":"Jacksonville","zipcode":"32224","phone":"19042484363","latitude":30.2868,"longitude":-81.4573,"chainStoreId":"1921","created":1365570337515,"updated":1365570337515}
{"address":"200 NW John Jones Dr","state":"TX","city":"Burleson","zipcode":"76028","phone":"18173020058","latitude":32.5263,"longitude":-97.3447,"chainStoreId":"1922","created":1365570337537,"updated":1365570337537}
{"address":"6090A Garners Ferry Rd","state":"SC","city":"Columbia","zipcode":"29209","phone":"18036470168","latitude":33.9818,"longitude":-80.9686,"chainStoreId":"1923","created":1365570337542,"updated":1365570337542}
{"address":"6525 W Diversey Ave","state":"IL","city":"Chicago","zipcode":"60707","phone":"17738043610","latitude":41.9304,"longitude":-87.7893,"chainStoreId":"1924","created":1365570337544,"updated":1365570337544}
{"address":"8989 S Howell Ave","state":"WI","city":"Oak Creek","zipcode":"53154","phone":"14142160001","latitude":42.8823,"longitude":-87.9154,"chainStoreId":"1925","created":1365570337545,"updated":1365570337545}
{"address":"1057 Eastshore Hwy","state":"CA","city":"Albany","zipcode":"94710","phone":"15109820512","latitude":37.8832,"longitude":-122.3071,"chainStoreId":"1926","created":1365570337547,"updated":1365570337547}
{"address":"879 Blossom Hill Rd","state":"CA","city":"San Jose","zipcode":"95123","phone":"14085133002","latitude":37.2522,"longitude":-121.863,"chainStoreId":"1927","created":1365570337548,"updated":1365570337548}
{"address":"10445 Reed St","state":"CO","city":"Westminster","zipcode":"80021","phone":"13034108310","latitude":39.8872,"longitude":-105.073,"chainStoreId":"1928","created":1365570337553,"updated":1365570337553}
{"address":"5000 Hadley Center Dr","state":"NJ","city":"South Plainfield","zipcode":"7080","phone":"19084442023","latitude":40.5484,"longitude":-74.4234,"chainStoreId":"1929","created":1365570337555,"updated":1365570337555}
{"address":"91 Taunton St","state":"MA","city":"Plainville","zipcode":"2762","phone":"15086435008","latitude":42.0338,"longitude":-71.3108,"chainStoreId":"1930","created":1365570337556,"updated":1365570337556}
{"address":"1201 Beaver Creek Commons Dr","state":"NC","city":"Apex","zipcode":"27502","phone":"19193721405","latitude":35.7452,"longitude":-78.8776,"chainStoreId":"1932","created":1365570337582,"updated":1365570337582}
{"address":"6119 Stellhorn Rd","state":"IN","city":"Fort Wayne","zipcode":"46815","phone":"12604858640","latitude":41.122,"longitude":-85.0639,"chainStoreId":"1933","created":1365570337584,"updated":1365570337584}
{"address":"8455 N Wickham Rd","state":"FL","city":"Melbourne","zipcode":"32940","phone":"13212429631","latitude":28.2281,"longitude":-80.7203,"chainStoreId":"1934","created":1365570337585,"updated":1365570337585}
{"address":"10155 Okeechobee Blvd","state":"FL","city":"West Palm Beach","zipcode":"33411","phone":"15612042349","latitude":26.7108,"longitude":-80.2029,"chainStoreId":"1935","created":1365570337594,"updated":1365570337594}
{"address":"6025 Wade Hampton Blvd","state":"SC","city":"Taylors","zipcode":"29687","phone":"18648018128","latitude":34.9372,"longitude":-82.2799,"chainStoreId":"1937","created":1365570337596,"updated":1365570337596}
{"address":"3414 8th St SW","state":"IA","city":"Altoona","zipcode":"50009","phone":"15159679343","latitude":41.6421,"longitude":-93.5063,"chainStoreId":"1939","created":1365570337598,"updated":1365570337598}
{"address":"4341 Feedwire Rd","state":"OH","city":"Dayton","zipcode":"45440","phone":"19374399301","latitude":39.6589,"longitude":-84.1045,"chainStoreId":"1940","created":1365570337599,"updated":1365570337599}
{"address":"500 N Congress Ave","state":"FL","city":"Lake Park","zipcode":"33403","phone":"15613522098","latitude":26.8061,"longitude":-80.0827,"chainStoreId":"1941","created":1365570337601,"updated":1365570337601}
{"address":"36 Furlong Dr","state":"MA","city":"Revere","zipcode":"2151","phone":"17819226030","latitude":42.3991,"longitude":-70.9995,"chainStoreId":"1942","created":1365570337622,"updated":1365570337622}
{"address":"7575 Maple St","state":"KS","city":"Wichita","zipcode":"67209","phone":"13167295348","latitude":37.6783,"longitude":-97.432,"chainStoreId":"1943","created":1365570337624,"updated":1365570337624}
{"address":"10800 E 21st St N","state":"KS","city":"Wichita","zipcode":"67206","phone":"13166364206","latitude":37.7244,"longitude":-97.2113,"chainStoreId":"1944","created":1365570337625,"updated":1365570337625}
{"address":"2727 N Maize Rd","state":"KS","city":"Wichita","zipcode":"67205","phone":"13167214289","latitude":37.7322,"longitude":-97.4648,"chainStoreId":"1945","created":1365570337627,"updated":1365570337627}
{"address":"3369 Princeton Rd","state":"OH","city":"Hamilton","zipcode":"45011","phone":"15137140016","latitude":39.3897,"longitude":-84.5044,"chainStoreId":"1946","created":1365570337634,"updated":1365570337634}
{"address":"2201 S Commons","state":"WA","city":"Federal Way","zipcode":"98003","phone":"12537337520","latitude":47.3136,"longitude":-122.309,"chainStoreId":"1947","created":1365570337637,"updated":1365570337637}
{"address":"2975 Horseblock Rd","state":"NY","city":"Medford","zipcode":"11763","phone":"16312860287","latitude":40.8246,"longitude":-72.9886,"chainStoreId":"1948","created":1365570337671,"updated":1365570337671}
{"address":"355 W Mound Rd","state":"IL","city":"Decatur","zipcode":"62526","phone":"12178756060","latitude":39.8899,"longitude":-88.9589,"chainStoreId":"1951","created":1365570337673,"updated":1365570337673}
{"address":"1272 Town & Country Crossing Dr","state":"MO","city":"Chesterfield","zipcode":"63017","phone":"16365910234","latitude":38.62,"longitude":-90.5199,"chainStoreId":"1952","created":1365570337674,"updated":1365570337674}
{"address":"11220 FM 2222","state":"TX","city":"Austin","zipcode":"78730","phone":"15126510086","latitude":30.4039,"longitude":-97.8531,"chainStoreId":"1953","created":1365570337675,"updated":1365570337675}
{"address":"195 N Bedford Rd Ste A","state":"NY","city":"Mount Kisco","zipcode":"10549","phone":"19146020004","latitude":41.2174,"longitude":-73.7217,"chainStoreId":"1954","created":1365570337677,"updated":1365570337677}
{"address":"25 Boston Post Rd","state":"CT","city":"Orange","zipcode":"6477","phone":"12038593694","latitude":41.2794,"longitude":-72.9872,"chainStoreId":"1955","created":1365570337678,"updated":1365570337678}
{"address":"120 Hawley Ln","state":"CT","city":"Trumbull","zipcode":"6611","phone":"12034550102","latitude":41.2335,"longitude":-73.1518,"chainStoreId":"1956","created":1365570337679,"updated":1365570337679}
{"address":"9400 192nd Ave E","state":"WA","city":"Bonney Lake","zipcode":"98391","phone":"12538625660","latitude":47.1712,"longitude":-122.172,"chainStoreId":"1957","created":1365570337681,"updated":1365570337681}
{"address":"15272 Summit Ave","state":"CA","city":"Fontana","zipcode":"92336","phone":"19094639872","latitude":34.1519,"longitude":-117.474,"chainStoreId":"1958","created":1365570337682,"updated":1365570337682}
{"address":"5110 S Power Rd","state":"AZ","city":"Mesa","zipcode":"85212","phone":"14802810268","latitude":33.3228,"longitude":-111.688,"chainStoreId":"1959","created":1365570337684,"updated":1365570337684}
{"address":"3931 S Gilbert Rd","state":"AZ","city":"Gilbert","zipcode":"85297","phone":"14802810201","latitude":33.279,"longitude":-111.788,"chainStoreId":"1960","created":1365570337685,"updated":1365570337685}
{"address":"12471 Limonite Ave","state":"CA","city":"Mira Loma","zipcode":"91752","phone":"19512565261","latitude":33.9777,"longitude":-117.554,"chainStoreId":"1961","created":1365570337687,"updated":1365570337687}
{"address":"1316 N Highway 77","state":"TX","city":"Waxahachie","zipcode":"75165","phone":"19729238930","latitude":32.4244,"longitude":-96.8377,"chainStoreId":"1962","created":1365570337689,"updated":1365570337689}
{"address":"3064 Columbia Ave","state":"TN","city":"Franklin","zipcode":"37064","phone":"16154722052","latitude":35.8927,"longitude":-86.8803,"chainStoreId":"1963","created":1365570337729,"updated":1365570337729}
{"address":"86 Orchard Hill Park Dr","state":"MA","city":"Leominster","zipcode":"1453","phone":"19785342914","latitude":42.5271,"longitude":-71.7143,"chainStoreId":"1965","created":1365570337731,"updated":1365570337731}
{"address":"1201 W P Ball Blvd","state":"FL","city":"Sanford","zipcode":"32771","phone":"14075470007","latitude":28.7993,"longitude":-81.3337,"chainStoreId":"1966","created":1365570337746,"updated":1365570337746}
{"address":"2900 Little Rd","state":"FL","city":"Trinity","zipcode":"34655","phone":"17273762140","latitude":28.2042,"longitude":-82.6646,"chainStoreId":"1967","created":1365570337748,"updated":1365570337748}
{"address":"7235 Bell Creek Rd","state":"VA","city":"Mechanicsville","zipcode":"23111","phone":"18045595802","latitude":37.6003,"longitude":-77.3509,"chainStoreId":"1968","created":1365570337750,"updated":1365570337750}
{"address":"4211 Trueman Blvd","state":"OH","city":"Hilliard","zipcode":"43026","phone":"16148765530","latitude":40.0363,"longitude":-83.1213,"chainStoreId":"1969","created":1365570337751,"updated":1365570337751}
{"address":"1330 Martin Blvd","state":"MD","city":"Middle River","zipcode":"21220","phone":"14104069081","latitude":39.3344,"longitude":-76.4475,"chainStoreId":"1970","created":1365570337754,"updated":1365570337754}
{"address":"10025 E Highland Rd","state":"MI","city":"Howell","zipcode":"48843","phone":"18106322304","latitude":42.6348,"longitude":-83.7572,"chainStoreId":"1971","created":1365570337755,"updated":1365570337755}
{"address":"3955 E Broad St","state":"OH","city":"Whitehall","zipcode":"43213","phone":"16142361409","latitude":39.9709,"longitude":-82.8953,"chainStoreId":"1972","created":1365570337757,"updated":1365570337757}
{"address":"4567 River City Dr","state":"FL","city":"Jacksonville","zipcode":"32246","phone":"19045960020","latitude":30.2608,"longitude":-81.5247,"chainStoreId":"1974","created":1365570337758,"updated":1365570337758}
{"address":"7400 S Gartrell Rd","state":"CO","city":"Aurora","zipcode":"80016","phone":"13032092827","latitude":39.5811,"longitude":-104.723,"chainStoreId":"1976","created":1365570337760,"updated":1365570337760}
{"address":"5201 N Belt Hwy Ste H","state":"MO","city":"St. Joseph","zipcode":"64506","phone":"18166710550","latitude":39.8114,"longitude":-94.8133,"chainStoreId":"1977","created":1365570337776,"updated":1365570337776}
{"address":"8223 State Highway 151","state":"TX","city":"San Antonio","zipcode":"78245","phone":"12102470016","latitude":29.4375,"longitude":-98.6494,"chainStoreId":"1979","created":1365570337777,"updated":1365570337777}
{"address":"1601 Kingsdale Ave","state":"CA","city":"Redondo Beach","zipcode":"90278","phone":"13107500003","latitude":33.8689,"longitude":-118.358,"chainStoreId":"1980","created":1365570337800,"updated":1365570337800}
{"address":"122 E Interstate 20","state":"TX","city":"Weatherford","zipcode":"76087","phone":"18175980309","latitude":32.7279,"longitude":-97.7861,"chainStoreId":"1981","created":1365570337802,"updated":1365570337802}
{"address":"1021 W University Ste B3","state":"TX","city":"Georgetown","zipcode":"78628","phone":"15128693163","latitude":30.6312,"longitude":-97.6964,"chainStoreId":"1982","created":1365570337803,"updated":1365570337803}
{"address":"2900 Veterans Rd W","state":"NY","city":"Staten Island","zipcode":"10309","phone":"17187016205","latitude":40.529,"longitude":-74.2304,"chainStoreId":"2006","created":1365570337830,"updated":1365570337830}
{"address":"1925 Market Place Dr SE","state":"MI","city":"Caledonia","zipcode":"49316","phone":"16166981026","latitude":42.8464,"longitude":-85.6192,"chainStoreId":"2015","created":1365570337833,"updated":1365570337833}
{"address":"24646 Brookpark Rd","state":"OH","city":"North Olmsted","zipcode":"44070","phone":"14404140009","latitude":41.4202,"longitude":-81.896,"chainStoreId":"2016","created":1365570337834,"updated":1365570337834}
{"address":"4310 Fortuna Center Plz","state":"VA","city":"Dumfries","zipcode":"22025","phone":"17035866132","latitude":38.5967,"longitude":-77.3328,"chainStoreId":"2017","created":1365570337836,"updated":1365570337836}
{"address":"695 W Herndon Ave","state":"CA","city":"Clovis","zipcode":"93612","phone":"15593210009","latitude":36.8386,"longitude":-119.728,"chainStoreId":"2018","created":1365570337837,"updated":1365570337837}
{"address":"5071 Kipling St","state":"CO","city":"Wheat Ridge","zipcode":"80033","phone":"13032091848","latitude":39.7872,"longitude":-105.112,"chainStoreId":"2021","created":1365570337846,"updated":1365570337846}
{"address":"10001 Commons St","state":"CO","city":"Lone Tree","zipcode":"80124","phone":"13032091851","latitude":39.5341,"longitude":-104.882,"chainStoreId":"2023","created":1365570337848,"updated":1365570337848}
{"address":"128 Bailey Farm Rd","state":"NY","city":"Monroe","zipcode":"10950","phone":"18457835686","latitude":41.3181,"longitude":-74.1542,"chainStoreId":"2024","created":1365570337849,"updated":1365570337849}
{"address":"20700 S Avalon Blvd Ste 700","state":"CA","city":"Carson","zipcode":"90746","phone":"13108193011","latitude":33.8461,"longitude":-118.2626,"chainStoreId":"2026","created":1365570337851,"updated":1365570337851}
{"address":"19105 Golden Valley Rd","state":"CA","city":"Santa Clarita","zipcode":"91387","phone":"16619775154","latitude":34.3954,"longitude":-118.4643,"chainStoreId":"2030","created":1365570337853,"updated":1365570337853}
{"address":"6100 Paseo Del Norte NE","state":"NM","city":"Albuquerque","zipcode":"87113","phone":"15053460135","latitude":35.1721,"longitude":-106.582,"chainStoreId":"2031","created":1365570337855,"updated":1365570337855}
{"address":"3770 N Goldenrod Rd","state":"FL","city":"Winter Park","zipcode":"32792","phone":"14076700388","latitude":28.5961,"longitude":-81.288,"chainStoreId":"2032","created":1365570337856,"updated":1365570337856}
{"address":"1475 University Dr","state":"NC","city":"Burlington","zipcode":"27215","phone":"13365249354","latitude":36.0665,"longitude":-79.5175,"chainStoreId":"2037","created":1365570337858,"updated":1365570337858}
{"address":"40 N 4th Ave","state":"CA","city":"Chula Vista","zipcode":"91910","phone":"16194255120","latitude":32.6512,"longitude":-117.089,"chainStoreId":"204","created":1365570337859,"updated":1365570337859}
{"address":"1544 N Dale Mabry Hwy","state":"FL","city":"Tampa","zipcode":"33607","phone":"18132620244","latitude":27.9572,"longitude":-82.508,"chainStoreId":"2040","created":1365570337861,"updated":1365570337861}
{"address":"1980 Lincoln Way E","state":"OH","city":"Massillon","zipcode":"44646","phone":"13308332265","latitude":40.8005,"longitude":-81.4967,"chainStoreId":"2044","created":1365570337862,"updated":1365570337862}
{"address":"1750 Robert St S","state":"MN","city":"West St Paul","zipcode":"55118","phone":"16514556671","latitude":44.8933,"longitude":-93.0787,"chainStoreId":"2046","created":1365570337864,"updated":1365570337864}
{"address":"5579 Highway 153","state":"TN","city":"Hixson","zipcode":"37343","phone":"14238704768","latitude":35.1435,"longitude":-85.248,"chainStoreId":"2053","created":1365570337867,"updated":1365570337867}
{"address":"6143 U S Highway 98 Ste 80","state":"MS","city":"Hattiesburg","zipcode":"39402","phone":"16012615298","latitude":31.3226,"longitude":-89.3797,"chainStoreId":"2055","created":1365570337868,"updated":1365570337868}
{"address":"2625 Peachtree Pkwy","state":"GA","city":"Suwanee","zipcode":"30024","phone":"16785138013","latitude":34.096,"longitude":-84.1745,"chainStoreId":"2056","created":1365570337882,"updated":1365570337882}
{"address":"5405 Washington Pke","state":"TN","city":"Knoxville","zipcode":"37918","phone":"18652910086","latitude":36.0369,"longitude":-83.8873,"chainStoreId":"2057","created":1365570337884,"updated":1365570337884}
{"address":"716 N US Highway 441/27","state":"FL","city":"The Villages","zipcode":"32159","phone":"13522058934","latitude":28.9345,"longitude":-81.9398,"chainStoreId":"2058","created":1365570337886,"updated":1365570337886}
{"address":"10000 Gulf Center Dr","state":"FL","city":"Fort Myers","zipcode":"33913","phone":"12394322641","latitude":26.49,"longitude":-81.788,"chainStoreId":"2059","created":1365570337887,"updated":1365570337887}
{"address":"7697 Winchester Rd","state":"TN","city":"Memphis","zipcode":"38125","phone":"19012480250","latitude":35.0476,"longitude":-89.8064,"chainStoreId":"2060","created":1365570337888,"updated":1365570337888}
{"address":"7305 SE 29th St","state":"OK","city":"Midwest City","zipcode":"73110","phone":"14054554000","latitude":35.4381,"longitude":-97.3953,"chainStoreId":"2061","created":1365570337890,"updated":1365570337890}
{"address":"17450 US Highway 441","state":"FL","city":"Mount Dora","zipcode":"32757","phone":"13523850516","latitude":28.8198,"longitude":-81.671,"chainStoreId":"2062","created":1365570337891,"updated":1365570337891}
{"address":"2415 Tarpon Bay Blvd","state":"FL","city":"Naples","zipcode":"34119","phone":"12395521100","latitude":26.2708,"longitude":-81.7396,"chainStoreId":"2063","created":1365570337892,"updated":1365570337892}
{"address":"6801 FM 1960 Rd W","state":"TX","city":"Houston","zipcode":"77069","phone":"12817161105","latitude":29.9681,"longitude":-95.5316,"chainStoreId":"2066","created":1365570337894,"updated":1365570337894}
{"address":"10201 Hagen Ranch Rd","state":"FL","city":"Boynton Beach","zipcode":"33437","phone":"15615360261","latitude":26.5263,"longitude":-80.1658,"chainStoreId":"2067","created":1365570337901,"updated":1365570337901}
{"address":"1125 Veterans Pkwy","state":"IN","city":"Clarksville","zipcode":"47129","phone":"18122844524","latitude":38.3268,"longitude":-85.7665,"chainStoreId":"2068","created":1365570337904,"updated":1365570337904}
{"address":"8210 Renaissance Pkwy","state":"NC","city":"Durham","zipcode":"27713","phone":"19194250001","latitude":35.9038,"longitude":-78.9505,"chainStoreId":"2069","created":1365570337905,"updated":1365570337905}
{"address":"4144 Buckeye Pkwy","state":"OH","city":"Grove City","zipcode":"43123","phone":"16143053954","latitude":39.8766,"longitude":-83.0372,"chainStoreId":"2070","created":1365570337907,"updated":1365570337907}
{"address":"1995 E Market St","state":"VA","city":"Harrisonburg","zipcode":"22801","phone":"15404321708","latitude":38.4289,"longitude":-78.8443,"chainStoreId":"2071","created":1365570337909,"updated":1365570337909}
{"address":"50 Rte 17 K","state":"NY","city":"Newburgh","zipcode":"12550","phone":"18458387120","latitude":41.5048,"longitude":-74.0592,"chainStoreId":"2076","created":1365570337911,"updated":1365570337911}
{"address":"288 Mt Nebo Pointe Dr","state":"PA","city":"Pittsburgh","zipcode":"15237","phone":"14125368200","latitude":40.5342,"longitude":-80.0688,"chainStoreId":"2077","created":1365570337912,"updated":1365570337912}
{"address":"1940 W 33rd St","state":"IL","city":"Chicago","zipcode":"60608","phone":"17738433250","latitude":41.835,"longitude":-87.6748,"chainStoreId":"2078","created":1365570337913,"updated":1365570337913}
{"address":"2112 W Peterson Ave","state":"IL","city":"Chicago","zipcode":"60659","phone":"17737613001","latitude":41.9913,"longitude":-87.6823,"chainStoreId":"2079","created":1365570337915,"updated":1365570337915}
{"address":"9841 Northlake Centre Pkwy","state":"NC","city":"Charlotte","zipcode":"28216","phone":"17045263648","latitude":35.3499,"longitude":-80.8598,"chainStoreId":"2080","created":1365570337917,"updated":1365570337917}
{"address":"7530 Orangethorpe Ave","state":"CA","city":"Buena Park","zipcode":"90621","phone":"17146760013","latitude":33.8575,"longitude":-118.0,"chainStoreId":"2082","created":1365570337919,"updated":1365570337919}
{"address":"1235 Point Mallard Parkway SE","state":"AL","city":"Decatur","zipcode":"35601","phone":"12568983036","latitude":34.5604,"longitude":-86.9718,"chainStoreId":"2084","created":1365570337921,"updated":1365570337921}
{"address":"8100 E Broad St","state":"OH","city":"Reynoldsburg","zipcode":"43068","phone":"16143229594","latitude":39.9872,"longitude":-82.7858,"chainStoreId":"2086","created":1365570337922,"updated":1365570337922}
